[ {
  "Code" : "DK0001",
  "CountryCode" : "DK",
  "Name" : "Aabenraa",
  "LatGeodetic" : 55.041831970214844,
  "Lon" : 9.429333686828613,
  "Locode" : "DKAAB",
  "Aliases" : null,
  "TimeZone" : {
    "UtcCurrentOffset" : 2,
    "RawOffset" : 1,
    "TimezoneId" : "Europe/Paris",
    "DisplayName" : "(UTC+01:00) Brussels, Copenhagen, Madrid, Paris"
  }
}, {
  "Code" : "DK0002",
  "CountryCode" : "DK",
  "Name" : "Aalborg",
  "LatGeodetic" : 57.051666259765625,
  "Lon" : 9.928333282470703,
  "Locode" : "DKAAL",
  "Aliases" : null,
  "TimeZone" : {
    "UtcCurrentOffset" : 2,
    "RawOffset" : 1,
    "TimezoneId" : "Europe/Paris",
    "DisplayName" : "(UTC+01:00) Brussels, Copenhagen, Madrid, Paris"
  }
}, {
  "Code" : "DK0003",
  "CountryCode" : "DK",
  "Name" : "Aarhus",
  "LatGeodetic" : 56.16166687011719,
  "Lon" : 10.238333702087402,
  "Locode" : "DKAAR",
  "Aliases" : null,
  "TimeZone" : {
    "UtcCurrentOffset" : 2,
    "RawOffset" : 1,
    "TimezoneId" : "Europe/Paris",
    "DisplayName" : "(UTC+01:00) Brussels, Copenhagen, Madrid, Paris"
  }
}, {
  "Code" : "IR0001",
  "CountryCode" : "IR",
  "Name" : "Abadan",
  "LatGeodetic" : 30.335765838623047,
  "Lon" : 48.271385192871094,
  "Locode" : "IRABD",
  "Aliases" : null,
  "TimeZone" : {
    "UtcCurrentOffset" : 3,
    "RawOffset" : 3,
    "TimezoneId" : "Asia/Baghdad",
    "DisplayName" : "(UTC+03:00) Baghdad"
  }
}, {
  "Code" : "AU0001",
  "CountryCode" : "AU",
  "Name" : "Abbot Point",
  "LatGeodetic" : -19.856666564941406,
  "Lon" : 148.086669921875,
  "Locode" : "AUABP",
  "Aliases" : null,
  "TimeZone" : {
    "UtcCurrentOffset" : 10,
    "RawOffset" : 10,
    "TimezoneId" : "Australia/Brisbane",
    "DisplayName" : "(UTC+10:00) Brisbane"
  }
}, {
  "Code" : "GB0002",
  "CountryCode" : "GB",
  "Name" : "Aberdeen, U.K.",
  "LatGeodetic" : 57.141666412353516,
  "Lon" : -2.075000047683716,
  "Locode" : "GBABD",
  "Aliases" : null,
  "TimeZone" : {
    "UtcCurrentOffset" : 1,
    "RawOffset" : 0,
    "TimezoneId" : "Europe/London",
    "DisplayName" : "(UTC+00:00) Dublin, Edinburgh, Lisbon, London"
  }
}, {
  "Code" : "JP0002",
  "CountryCode" : "JP",
  "Name" : "Aboshi",
  "LatGeodetic" : 34.773616790771484,
  "Lon" : 134.60606384277344,
  "Locode" : "JPABO",
  "Aliases" : null,
  "TimeZone" : {
    "UtcCurrentOffset" : 9,
    "RawOffset" : 9,
    "TimezoneId" : "Asia/Tokyo",
    "DisplayName" : "(UTC+09:00) Osaka, Sapporo, Tokyo"
  }
}, {
  "Code" : "AE0001",
  "CountryCode" : "AE",
  "Name" : "Abu Al Bukhoosh",
  "LatGeodetic" : 25.463333129882812,
  "Lon" : 53.08333206176758,
  "Locode" : "AEABU",
  "Aliases" : null,
  "TimeZone" : {
    "UtcCurrentOffset" : 4,
    "RawOffset" : 4,
    "TimezoneId" : "Asia/Dubai",
    "DisplayName" : "(UTC+04:00) Abu Dhabi, Muscat"
  }
}, {
  "Code" : "AU0002",
  "CountryCode" : "AU",
  "Name" : "Adelaide",
  "LatGeodetic" : -34.77666473388672,
  "Lon" : 138.47999572753906,
  "Locode" : "AUADL",
  "Aliases" : null,
  "TimeZone" : {
    "UtcCurrentOffset" : 9,
    "RawOffset" : 9,
    "TimezoneId" : "Australia/Adelaide",
    "DisplayName" : "(UTC+09:30) Adelaide"
  }
}, {
  "Code" : "YE0002",
  "CountryCode" : "YE",
  "Name" : "Aden",
  "LatGeodetic" : 12.768333435058594,
  "Lon" : 44.91666793823242,
  "Locode" : "YEADE",
  "Aliases" : [ "Little Aden", "Ma'alla Terminal" ],
  "TimeZone" : {
    "UtcCurrentOffset" : 3,
    "RawOffset" : 3,
    "TimezoneId" : "Asia/Riyadh",
    "DisplayName" : "(UTC+03:00) Kuwait, Riyadh"
  }
}, {
  "Code" : "MA0002",
  "CountryCode" : "MA",
  "Name" : "Agadir",
  "LatGeodetic" : 30.424999237060547,
  "Lon" : -9.644999504089355,
  "Locode" : "MAAGA",
  "Aliases" : [ "Anza" ],
  "TimeZone" : {
    "UtcCurrentOffset" : 1,
    "RawOffset" : 0,
    "TimezoneId" : "Africa/Casablanca",
    "DisplayName" : "(UTC+01:00) Casablanca"
  }
}, {
  "Code" : "GR0009",
  "CountryCode" : "GR",
  "Name" : "Agia Marina",
  "LatGeodetic" : 38.885101318359375,
  "Lon" : 22.5889835357666,
  "Locode" : "GRAGM",
  "Aliases" : null,
  "TimeZone" : {
    "UtcCurrentOffset" : 3,
    "RawOffset" : 2,
    "TimezoneId" : "Europe/Bucharest",
    "DisplayName" : "(UTC+02:00) Athens, Bucharest"
  }
}, {
  "Code" : "GR0011",
  "CountryCode" : "GR",
  "Name" : "Agioi Theodoroi",
  "LatGeodetic" : 37.913333892822266,
  "Lon" : 23.088333129882812,
  "Locode" : "GRAGT",
  "Aliases" : null,
  "TimeZone" : {
    "UtcCurrentOffset" : 3,
    "RawOffset" : 2,
    "TimezoneId" : "Europe/Bucharest",
    "DisplayName" : "(UTC+02:00) Athens, Bucharest"
  }
}, {
  "Code" : "NO0002",
  "CountryCode" : "NO",
  "Name" : "Agotnes",
  "LatGeodetic" : 60.415000915527344,
  "Lon" : 5.006666660308838,
  "Locode" : "NOAGO",
  "Aliases" : null,
  "TimeZone" : {
    "UtcCurrentOffset" : 2,
    "RawOffset" : 1,
    "TimezoneId" : "Europe/Berlin",
    "DisplayName" : "(UTC+01:00) Amsterdam, Berlin, Bern, Rome, Stockholm, Vienna"
  }
}, {
  "Code" : "PR0001",
  "CountryCode" : "PR",
  "Name" : "Aguadilla",
  "LatGeodetic" : 18.430416107177734,
  "Lon" : -67.15858459472656,
  "Locode" : "PRBQN",
  "Aliases" : null,
  "TimeZone" : {
    "UtcCurrentOffset" : -4,
    "RawOffset" : -4,
    "TimezoneId" : "America/La_Paz",
    "DisplayName" : "(UTC-04:00) Georgetown, La Paz, Manaus, San Juan"
  }
}, {
  "Code" : "PA0001",
  "CountryCode" : "PA",
  "Name" : "Aguadulce",
  "LatGeodetic" : 8.221426010131836,
  "Lon" : -80.47264862060547,
  "Locode" : "PAAGD",
  "Aliases" : null,
  "TimeZone" : {
    "UtcCurrentOffset" : -5,
    "RawOffset" : -5,
    "TimezoneId" : "America/Bogota",
    "DisplayName" : "(UTC-05:00) Bogota, Lima, Quito, Rio Branco"
  }
}, {
  "Code" : "SE0002",
  "CountryCode" : "SE",
  "Name" : "Ahus",
  "LatGeodetic" : 55.9275016784668,
  "Lon" : 14.325833320617676,
  "Locode" : "SEAHU",
  "Aliases" : null,
  "TimeZone" : {
    "UtcCurrentOffset" : 2,
    "RawOffset" : 1,
    "TimezoneId" : "Europe/Berlin",
    "DisplayName" : "(UTC+01:00) Amsterdam, Berlin, Bern, Rome, Stockholm, Vienna"
  }
}, {
  "Code" : "EG0006",
  "CountryCode" : "EG",
  "Name" : "Ain Sukhna",
  "LatGeodetic" : 29.575000762939453,
  "Lon" : 32.40833282470703,
  "Locode" : "EGAIS",
  "Aliases" : [ "Al Sokhna" ],
  "TimeZone" : {
    "UtcCurrentOffset" : 2,
    "RawOffset" : 2,
    "TimezoneId" : "Africa/Cairo",
    "DisplayName" : "(UTC+02:00) Cairo"
  }
}, {
  "Code" : "AU0003",
  "CountryCode" : "AU",
  "Name" : "Airlie Island",
  "LatGeodetic" : -21.307327270507812,
  "Lon" : 115.17321014404297,
  "Locode" : "AUAIR",
  "Aliases" : null,
  "TimeZone" : {
    "UtcCurrentOffset" : 8,
    "RawOffset" : 8,
    "TimezoneId" : "Australia/Perth",
    "DisplayName" : "(UTC+08:00) Perth"
  }
}, {
  "Code" : "FR0003",
  "CountryCode" : "FR",
  "Name" : "Ajaccio",
  "LatGeodetic" : 41.926666259765625,
  "Lon" : 8.75,
  "Locode" : "FRAJA",
  "Aliases" : null,
  "TimeZone" : {
    "UtcCurrentOffset" : 2,
    "RawOffset" : 1,
    "TimezoneId" : "Europe/Paris",
    "DisplayName" : "(UTC+01:00) Brussels, Copenhagen, Madrid, Paris"
  }
}, {
  "Code" : "AE0005",
  "CountryCode" : "AE",
  "Name" : "Ajman",
  "LatGeodetic" : 25.4233341217041,
  "Lon" : 55.4566650390625,
  "Locode" : "AEAJM",
  "Aliases" : null,
  "TimeZone" : {
    "UtcCurrentOffset" : 4,
    "RawOffset" : 4,
    "TimezoneId" : "Asia/Dubai",
    "DisplayName" : "(UTC+04:00) Abu Dhabi, Muscat"
  }
}, {
  "Code" : "JP0007",
  "CountryCode" : "JP",
  "Name" : "Akita",
  "LatGeodetic" : 39.753334045410156,
  "Lon" : 140.05667114257812,
  "Locode" : "JPAXT",
  "Aliases" : null,
  "TimeZone" : {
    "UtcCurrentOffset" : 9,
    "RawOffset" : 9,
    "TimezoneId" : "Asia/Tokyo",
    "DisplayName" : "(UTC+09:00) Osaka, Sapporo, Tokyo"
  }
}, {
  "Code" : "CY0001",
  "CountryCode" : "CY",
  "Name" : "Akrotiri",
  "LatGeodetic" : 34.57192611694336,
  "Lon" : 33.03478240966797,
  "Locode" : "CYAKT",
  "Aliases" : null,
  "TimeZone" : {
    "UtcCurrentOffset" : 3,
    "RawOffset" : 2,
    "TimezoneId" : "Europe/Bucharest",
    "DisplayName" : "(UTC+02:00) Athens, Bucharest"
  }
}, {
  "Code" : "IS0002",
  "CountryCode" : "IS",
  "Name" : "Akureyri",
  "LatGeodetic" : 65.67923333333334,
  "Lon" : -18.079533333333334,
  "Locode" : "ISAKU",
  "Aliases" : null,
  "TimeZone" : {
    "UtcCurrentOffset" : 0,
    "RawOffset" : 0,
    "TimezoneId" : "Atlantic/Reykjavik",
    "DisplayName" : "(UTC+00:00) Monrovia, Reykjavik"
  }
}, {
  "Code" : "IQ0003",
  "CountryCode" : "IQ",
  "Name" : "Basrah Oil Terminal",
  "LatGeodetic" : 29.68000030517578,
  "Lon" : 48.813331604003906,
  "Locode" : "IQMAB",
  "Aliases" : [ "Al Bakr Terminal", "Al-Basra Oil Terminal" ],
  "TimeZone" : {
    "UtcCurrentOffset" : 3,
    "RawOffset" : 3,
    "TimezoneId" : "Africa/Nairobi",
    "DisplayName" : "(UTC+03:00) Nairobi"
  }
}, {
  "Code" : "AU0004",
  "CountryCode" : "AU",
  "Name" : "Albany, W.A., Australia",
  "LatGeodetic" : -35.03666687011719,
  "Lon" : 117.8933334350586,
  "Locode" : "AUALH",
  "Aliases" : [ "Princess Royal Harbour" ],
  "TimeZone" : {
    "UtcCurrentOffset" : 8,
    "RawOffset" : 8,
    "TimezoneId" : "Australia/Perth",
    "DisplayName" : "(UTC+08:00) Perth"
  }
}, {
  "Code" : "US0009",
  "CountryCode" : "US",
  "Name" : "Albany, New York, U.S.A.",
  "LatGeodetic" : 42.625,
  "Lon" : -73.75499725341797,
  "Locode" : "USALB",
  "Aliases" : null,
  "TimeZone" : {
    "UtcCurrentOffset" : -4,
    "RawOffset" : -5,
    "TimezoneId" : "America/New_York",
    "DisplayName" : "(UTC-05:00) Eastern Time (US & Canada)"
  }
}, {
  "Code" : "ES0006",
  "CountryCode" : "ES",
  "Name" : "Alcanar",
  "LatGeodetic" : 40.571834564208984,
  "Lon" : 0.5523333549499512,
  "Locode" : "ESACA",
  "Aliases" : [ "Vallcarca" ],
  "TimeZone" : {
    "UtcCurrentOffset" : 2,
    "RawOffset" : 1,
    "TimezoneId" : "Europe/Paris",
    "DisplayName" : "(UTC+01:00) Brussels, Copenhagen, Madrid, Paris"
  }
}, {
  "Code" : "ES0007",
  "CountryCode" : "ES",
  "Name" : "Alcudia",
  "LatGeodetic" : 39.83333206176758,
  "Lon" : 3.140000104904175,
  "Locode" : "ESALD",
  "Aliases" : null,
  "TimeZone" : {
    "UtcCurrentOffset" : 2,
    "RawOffset" : 1,
    "TimezoneId" : "Europe/Paris",
    "DisplayName" : "(UTC+01:00) Brussels, Copenhagen, Madrid, Paris"
  }
}, {
  "Code" : "NO0004",
  "CountryCode" : "NO",
  "Name" : "Alesund",
  "LatGeodetic" : 62.46833419799805,
  "Lon" : 6.150000095367432,
  "Locode" : "NOAES",
  "Aliases" : null,
  "TimeZone" : {
    "UtcCurrentOffset" : 2,
    "RawOffset" : 1,
    "TimezoneId" : "Europe/Berlin",
    "DisplayName" : "(UTC+01:00) Amsterdam, Berlin, Bern, Rome, Stockholm, Vienna"
  }
}, {
  "Code" : "EG0008",
  "CountryCode" : "EG",
  "Name" : "Alexandria, Egypt",
  "LatGeodetic" : 31.15166664123535,
  "Lon" : 29.8266658782959,
  "Locode" : "EGALY",
  "Aliases" : [ "El Meks" ],
  "TimeZone" : {
    "UtcCurrentOffset" : 2,
    "RawOffset" : 2,
    "TimezoneId" : "Africa/Cairo",
    "DisplayName" : "(UTC+02:00) Cairo"
  }
}, {
  "Code" : "ES0009",
  "CountryCode" : "ES",
  "Name" : "Algeciras",
  "LatGeodetic" : 36.133331298828125,
  "Lon" : -5.433333396911621,
  "Locode" : "ESALG",
  "Aliases" : null,
  "TimeZone" : {
    "UtcCurrentOffset" : 2,
    "RawOffset" : 1,
    "TimezoneId" : "Europe/Paris",
    "DisplayName" : "(UTC+01:00) Brussels, Copenhagen, Madrid, Paris"
  }
}, {
  "Code" : "DZ0001",
  "CountryCode" : "DZ",
  "Name" : "Algiers",
  "LatGeodetic" : 36.77166748046875,
  "Lon" : 3.0833332538604736,
  "Locode" : "DZALG",
  "Aliases" : null,
  "TimeZone" : {
    "UtcCurrentOffset" : 1,
    "RawOffset" : 1,
    "TimezoneId" : "Africa/Lagos",
    "DisplayName" : "(UTC+01:00) West Central Africa"
  }
}, {
  "Code" : "TR0006",
  "CountryCode" : "TR",
  "Name" : "Aliaga",
  "LatGeodetic" : 38.8316650390625,
  "Lon" : 26.954999923706055,
  "Locode" : "TRALI",
  "Aliases" : null,
  "TimeZone" : {
    "UtcCurrentOffset" : 3,
    "RawOffset" : 3,
    "TimezoneId" : "Europe/Istanbul",
    "DisplayName" : "(UTC+03:00) Istanbul"
  }
}, {
  "Code" : "ES0010",
  "CountryCode" : "ES",
  "Name" : "Alicante",
  "LatGeodetic" : 38.32999801635742,
  "Lon" : -0.48999980092048645,
  "Locode" : "ESALC",
  "Aliases" : null,
  "TimeZone" : {
    "UtcCurrentOffset" : 2,
    "RawOffset" : 1,
    "TimezoneId" : "Europe/Paris",
    "DisplayName" : "(UTC+01:00) Brussels, Copenhagen, Madrid, Paris"
  }
}, {
  "Code" : "GR0020",
  "CountryCode" : "GR",
  "Name" : "Aliveri Bay",
  "LatGeodetic" : 38.390926361083984,
  "Lon" : 24.04435157775879,
  "Locode" : "GRLVR",
  "Aliases" : [ "Aliverion", "Karavos Harbour" ],
  "TimeZone" : {
    "UtcCurrentOffset" : 3,
    "RawOffset" : 2,
    "TimezoneId" : "Europe/Bucharest",
    "DisplayName" : "(UTC+02:00) Athens, Bucharest"
  }
}, {
  "Code" : "ES0012",
  "CountryCode" : "ES",
  "Name" : "Almeria",
  "LatGeodetic" : 36.83416748046875,
  "Lon" : -2.4725000858306885,
  "Locode" : "ESLEI",
  "Aliases" : null,
  "TimeZone" : {
    "UtcCurrentOffset" : 2,
    "RawOffset" : 1,
    "TimezoneId" : "Europe/Paris",
    "DisplayName" : "(UTC+01:00) Brussels, Copenhagen, Madrid, Paris"
  }
}, {
  "Code" : "PA0002",
  "CountryCode" : "PA",
  "Name" : "Almirante",
  "LatGeodetic" : 9.263333320617676,
  "Lon" : -82.36333465576172,
  "Locode" : "PAPAM",
  "Aliases" : null,
  "TimeZone" : {
    "UtcCurrentOffset" : -5,
    "RawOffset" : -5,
    "TimezoneId" : "America/Bogota",
    "DisplayName" : "(UTC-05:00) Bogota, Lima, Quito, Rio Branco"
  }
}, {
  "Code" : "PG0004",
  "CountryCode" : "PG",
  "Name" : "Alotau",
  "LatGeodetic" : -10.3101167678833,
  "Lon" : 150.45298767089844,
  "Locode" : "PGGUR",
  "Aliases" : null,
  "TimeZone" : {
    "UtcCurrentOffset" : 10,
    "RawOffset" : 10,
    "TimezoneId" : "Pacific/Port_Moresby",
    "DisplayName" : "(UTC+10:00) Guam, Port Moresby"
  }
}, {
  "Code" : "MX0002",
  "CountryCode" : "MX",
  "Name" : "Altamira, Mexico",
  "LatGeodetic" : 22.479999542236328,
  "Lon" : -97.88749694824219,
  "Locode" : "MXATM",
  "Aliases" : null,
  "TimeZone" : {
    "UtcCurrentOffset" : -5,
    "RawOffset" : -6,
    "TimezoneId" : "America/Mexico_City",
    "DisplayName" : "(UTC-06:00) Guadalajara, Mexico City, Monterrey"
  }
}, {
  "Code" : "BR0009",
  "CountryCode" : "BR",
  "Name" : "Alumar",
  "LatGeodetic" : -2.677117109298706,
  "Lon" : -44.362422943115234,
  "Locode" : "BRALU",
  "Aliases" : null,
  "TimeZone" : {
    "UtcCurrentOffset" : -3,
    "RawOffset" : -3,
    "TimezoneId" : "America/Cayenne",
    "DisplayName" : "(UTC-03:00) Cayenne, Fortaleza"
  }
}, {
  "Code" : "US0017",
  "CountryCode" : "US",
  "Name" : "Ama",
  "LatGeodetic" : 29.948598861694336,
  "Lon" : -90.30563354492188,
  "Locode" : "USAMD",
  "Aliases" : null,
  "TimeZone" : {
    "UtcCurrentOffset" : -5,
    "RawOffset" : -6,
    "TimezoneId" : "America/Chicago",
    "DisplayName" : "(UTC-06:00) Central Time (US & Canada)"
  }
}, {
  "Code" : "JP0009",
  "CountryCode" : "JP",
  "Name" : "Amagasaki",
  "LatGeodetic" : 34.686668395996094,
  "Lon" : 135.3816680908203,
  "Locode" : "JPAMA",
  "Aliases" : null,
  "TimeZone" : {
    "UtcCurrentOffset" : 9,
    "RawOffset" : 9,
    "TimezoneId" : "Asia/Tokyo",
    "DisplayName" : "(UTC+09:00) Osaka, Sapporo, Tokyo"
  }
}, {
  "Code" : "ID0007",
  "CountryCode" : "ID",
  "Name" : "Amamapare",
  "LatGeodetic" : -4.829999923706055,
  "Lon" : 136.85333251953125,
  "Locode" : "IDAMA",
  "Aliases" : null,
  "TimeZone" : {
    "UtcCurrentOffset" : 9,
    "RawOffset" : 9,
    "TimezoneId" : "Asia/Tokyo",
    "DisplayName" : "(UTC+09:00) Osaka, Sapporo, Tokyo"
  }
}, {
  "Code" : "ID0008",
  "CountryCode" : "ID",
  "Name" : "Ambon",
  "LatGeodetic" : -3.691666603088379,
  "Lon" : 128.1616668701172,
  "Locode" : "IDAMQ",
  "Aliases" : null,
  "TimeZone" : {
    "UtcCurrentOffset" : 9,
    "RawOffset" : 9,
    "TimezoneId" : "Asia/Tokyo",
    "DisplayName" : "(UTC+09:00) Osaka, Sapporo, Tokyo"
  }
}, {
  "Code" : "GR0018",
  "CountryCode" : "GR",
  "Name" : "Alexandroupolis",
  "LatGeodetic" : 40.84000015258789,
  "Lon" : 25.891666412353516,
  "Locode" : "GRAXD",
  "Aliases" : null,
  "TimeZone" : {
    "UtcCurrentOffset" : 3,
    "RawOffset" : 2,
    "TimezoneId" : "Europe/Bucharest",
    "DisplayName" : "(UTC+02:00) Athens, Bucharest"
  }
}, {
  "Code" : "US0020",
  "CountryCode" : "US",
  "Name" : "Amesville",
  "LatGeodetic" : 29.907663345336914,
  "Lon" : -90.10923767089844,
  "Locode" : "USMSY",
  "Aliases" : null,
  "TimeZone" : {
    "UtcCurrentOffset" : -5,
    "RawOffset" : -6,
    "TimezoneId" : "America/Chicago",
    "DisplayName" : "(UTC-06:00) Central Time (US & Canada)"
  }
}, {
  "Code" : "NL0002",
  "CountryCode" : "NL",
  "Name" : "Amsterdam",
  "LatGeodetic" : 52.404998779296875,
  "Lon" : 4.87666654586792,
  "Locode" : "NLAMS",
  "Aliases" : null,
  "TimeZone" : {
    "UtcCurrentOffset" : 2,
    "RawOffset" : 1,
    "TimezoneId" : "Europe/Berlin",
    "DisplayName" : "(UTC+01:00) Amsterdam, Berlin, Bern, Rome, Stockholm, Vienna"
  }
}, {
  "Code" : "VE0003",
  "CountryCode" : "VE",
  "Name" : "Amuay Bay",
  "LatGeodetic" : 11.743332862854004,
  "Lon" : -70.2300033569336,
  "Locode" : "VEAMY",
  "Aliases" : null,
  "TimeZone" : {
    "UtcCurrentOffset" : -4,
    "RawOffset" : -4,
    "TimezoneId" : "America/Caracas",
    "DisplayName" : "(UTC-04:00) Caracas"
  }
}, {
  "Code" : "US0021",
  "CountryCode" : "US",
  "Name" : "Anacortes",
  "LatGeodetic" : 48.51166534423828,
  "Lon" : -122.57499694824219,
  "Locode" : "USOTS",
  "Aliases" : [ "March Point" ],
  "TimeZone" : {
    "UtcCurrentOffset" : -7,
    "RawOffset" : -8,
    "TimezoneId" : "America/Los_Angeles",
    "DisplayName" : "(UTC-08:00) Pacific Time (US & Canada)"
  }
}, {
  "Code" : "US0022",
  "CountryCode" : "US",
  "Name" : "Anchorage",
  "LatGeodetic" : 61.224998474121094,
  "Lon" : -149.94833374023438,
  "Locode" : "USANC",
  "Aliases" : null,
  "TimeZone" : {
    "UtcCurrentOffset" : -8,
    "RawOffset" : -9,
    "TimezoneId" : "America/Anchorage",
    "DisplayName" : "(UTC-09:00) Alaska"
  }
}, {
  "Code" : "IT0007",
  "CountryCode" : "IT",
  "Name" : "Ancona",
  "LatGeodetic" : 43.62333297729492,
  "Lon" : 13.49666690826416,
  "Locode" : "ITAOI",
  "Aliases" : null,
  "TimeZone" : {
    "UtcCurrentOffset" : 2,
    "RawOffset" : 1,
    "TimezoneId" : "Europe/Berlin",
    "DisplayName" : "(UTC+01:00) Amsterdam, Berlin, Bern, Rome, Stockholm, Vienna"
  }
}, {
  "Code" : "BR0010",
  "CountryCode" : "BR",
  "Name" : "Angra dos Reis",
  "LatGeodetic" : -23.011667251586914,
  "Lon" : -44.313331604003906,
  "Locode" : "BRADR",
  "Aliases" : null,
  "TimeZone" : {
    "UtcCurrentOffset" : -3,
    "RawOffset" : -3,
    "TimezoneId" : "America/Sao_Paulo",
    "DisplayName" : "(UTC-03:00) Brasilia"
  }
}, {
  "Code" : "DZ0002",
  "CountryCode" : "DZ",
  "Name" : "Annaba",
  "LatGeodetic" : 36.9060491,
  "Lon" : 7.7793289,
  "Locode" : "DZAAE",
  "Aliases" : [ "Bone" ],
  "TimeZone" : {
    "UtcCurrentOffset" : 1,
    "RawOffset" : 1,
    "TimezoneId" : "Africa/Lagos",
    "DisplayName" : "(UTC+01:00) West Central Africa"
  }
}, {
  "Code" : "ID0011",
  "CountryCode" : "ID",
  "Name" : "Anoa Marine Terminal",
  "LatGeodetic" : 5.191712856292725,
  "Lon" : 105.6099853515625,
  "Locode" : "XZANU",
  "Aliases" : null,
  "TimeZone" : {
    "UtcCurrentOffset" : 7,
    "RawOffset" : 7,
    "TimezoneId" : "Asia/Bangkok",
    "DisplayName" : "(UTC+07:00) Bangkok, Hanoi, Jakarta"
  }
}, {
  "Code" : "CN0004",
  "CountryCode" : "CN",
  "Name" : "Anqing",
  "LatGeodetic" : 30.497695922851562,
  "Lon" : 117.04458618164062,
  "Locode" : "CNAQG",
  "Aliases" : null,
  "TimeZone" : {
    "UtcCurrentOffset" : 8,
    "RawOffset" : 8,
    "TimezoneId" : "Asia/Shanghai",
    "DisplayName" : "(UTC+08:00) Beijing, Chongqing, Hong Kong, Urumqi"
  }
}, {
  "Code" : "TR0012",
  "CountryCode" : "TR",
  "Name" : "Antalya",
  "LatGeodetic" : 36.85499954223633,
  "Lon" : 30.64666748046875,
  "Locode" : "TRAYT",
  "Aliases" : null,
  "TimeZone" : {
    "UtcCurrentOffset" : 3,
    "RawOffset" : 3,
    "TimezoneId" : "Europe/Istanbul",
    "DisplayName" : "(UTC+03:00) Istanbul"
  }
}, {
  "Code" : "NG0005",
  "CountryCode" : "NG",
  "Name" : "Antan Terminal",
  "LatGeodetic" : 4.151666641235352,
  "Lon" : 8.333333015441895,
  "Locode" : "NGANA",
  "Aliases" : null,
  "TimeZone" : {
    "UtcCurrentOffset" : 1,
    "RawOffset" : 1,
    "TimezoneId" : "Africa/Lagos",
    "DisplayName" : "(UTC+01:00) West Central Africa"
  }
}, {
  "Code" : "FR0007",
  "CountryCode" : "FR",
  "Name" : "Antifer",
  "LatGeodetic" : 49.654998779296875,
  "Lon" : 0.1316666603088379,
  "Locode" : "FRCIF",
  "Aliases" : null,
  "TimeZone" : {
    "UtcCurrentOffset" : 2,
    "RawOffset" : 1,
    "TimezoneId" : "Europe/Paris",
    "DisplayName" : "(UTC+01:00) Brussels, Copenhagen, Madrid, Paris"
  }
}, {
  "Code" : "CL0001",
  "CountryCode" : "CL",
  "Name" : "Antofagasta",
  "LatGeodetic" : -23.635000228881836,
  "Lon" : -70.41500091552734,
  "Locode" : "CLANF",
  "Aliases" : null,
  "TimeZone" : {
    "UtcCurrentOffset" : -4,
    "RawOffset" : -4,
    "TimezoneId" : "America/Santiago",
    "DisplayName" : "(UTC-04:00) Santiago"
  }
}, {
  "Code" : "BE0001",
  "CountryCode" : "BE",
  "Name" : "Antwerp",
  "LatGeodetic" : 51.3466682434082,
  "Lon" : 4.269999980926514,
  "Locode" : "BEANR",
  "Aliases" : null,
  "TimeZone" : {
    "UtcCurrentOffset" : 2,
    "RawOffset" : 1,
    "TimezoneId" : "Europe/Paris",
    "DisplayName" : "(UTC+01:00) Brussels, Copenhagen, Madrid, Paris"
  }
}, {
  "Code" : "CN0005",
  "CountryCode" : "CN",
  "Name" : "Ao Shan",
  "LatGeodetic" : 29.948333740234375,
  "Lon" : 122.13166809082031,
  "Locode" : "",
  "Aliases" : null,
  "TimeZone" : {
    "UtcCurrentOffset" : 8,
    "RawOffset" : 8,
    "TimezoneId" : "Asia/Shanghai",
    "DisplayName" : "(UTC+08:00) Beijing, Chongqing, Hong Kong, Urumqi"
  }
}, {
  "Code" : "JP0013",
  "CountryCode" : "JP",
  "Name" : "Aokata",
  "LatGeodetic" : 32.983333587646484,
  "Lon" : 129.03334045410156,
  "Locode" : "JPAOK",
  "Aliases" : [ "Kamigoto" ],
  "TimeZone" : {
    "UtcCurrentOffset" : 9,
    "RawOffset" : 9,
    "TimezoneId" : "Asia/Tokyo",
    "DisplayName" : "(UTC+09:00) Osaka, Sapporo, Tokyo"
  }
}, {
  "Code" : "JP0014",
  "CountryCode" : "JP",
  "Name" : "Aomori",
  "LatGeodetic" : 40.83833312988281,
  "Lon" : 140.74000549316406,
  "Locode" : "JPAOJ",
  "Aliases" : [ "Aburakawa" ],
  "TimeZone" : {
    "UtcCurrentOffset" : 9,
    "RawOffset" : 9,
    "TimezoneId" : "Asia/Tokyo",
    "DisplayName" : "(UTC+09:00) Osaka, Sapporo, Tokyo"
  }
}, {
  "Code" : "WS0001",
  "CountryCode" : "WS",
  "Name" : "Apia",
  "LatGeodetic" : -13.824999809265137,
  "Lon" : -171.76499938964844,
  "Locode" : "WSAPW",
  "Aliases" : null,
  "TimeZone" : {
    "UtcCurrentOffset" : 13,
    "RawOffset" : 13,
    "TimezoneId" : "Pacific/Apia",
    "DisplayName" : "(UTC+13:00) Samoa"
  }
}, {
  "Code" : "JO0001",
  "CountryCode" : "JO",
  "Name" : "Aqaba",
  "LatGeodetic" : 29.50666618347168,
  "Lon" : 34.98833465576172,
  "Locode" : "JOAQJ",
  "Aliases" : [ "Mo'ta", "Mushterak" ],
  "TimeZone" : {
    "UtcCurrentOffset" : 3,
    "RawOffset" : 3,
    "TimezoneId" : "Asia/Amman",
    "DisplayName" : "(UTC+03:00) Amman"
  }
}, {
  "Code" : "BR0012",
  "CountryCode" : "BR",
  "Name" : "Aracaju",
  "LatGeodetic" : -11.130000114440918,
  "Lon" : -36.94166564941406,
  "Locode" : "BRAJU",
  "Aliases" : [ "Barra dos Coqueiros" ],
  "TimeZone" : {
    "UtcCurrentOffset" : -3,
    "RawOffset" : -3,
    "TimezoneId" : "America/Cayenne",
    "DisplayName" : "(UTC-03:00) Cayenne, Fortaleza"
  }
}, {
  "Code" : "BR0015",
  "CountryCode" : "BR",
  "Name" : "Aratu",
  "LatGeodetic" : -12.779999732971191,
  "Lon" : -38.50166702270508,
  "Locode" : "BRARB",
  "Aliases" : null,
  "TimeZone" : {
    "UtcCurrentOffset" : -3,
    "RawOffset" : -3,
    "TimezoneId" : "America/Bahia",
    "DisplayName" : "(UTC-03:00) Salvador"
  }
}, {
  "Code" : "RU0009",
  "CountryCode" : "RU",
  "Name" : "Archangel",
  "LatGeodetic" : 64.52833557128906,
  "Lon" : 40.525001525878906,
  "Locode" : "RUARH",
  "Aliases" : [ "Arkhangelsk", "Bakarista", "Leviy Bereg" ],
  "TimeZone" : {
    "UtcCurrentOffset" : 3,
    "RawOffset" : 3,
    "TimezoneId" : "Europe/Moscow",
    "DisplayName" : "(UTC+03:00) Moscow, St. Petersburg"
  }
}, {
  "Code" : "NO0008",
  "CountryCode" : "NO",
  "Name" : "Ardalstangen",
  "LatGeodetic" : 61.233768463134766,
  "Lon" : 7.701399803161621,
  "Locode" : "NOARD",
  "Aliases" : null,
  "TimeZone" : {
    "UtcCurrentOffset" : 2,
    "RawOffset" : 1,
    "TimezoneId" : "Europe/Berlin",
    "DisplayName" : "(UTC+01:00) Amsterdam, Berlin, Bern, Rome, Stockholm, Vienna"
  }
}, {
  "Code" : "AU0011",
  "CountryCode" : "AU",
  "Name" : "Ardrossan, S.A., Australia",
  "LatGeodetic" : -34.439334869384766,
  "Lon" : 137.92672729492188,
  "Locode" : "",
  "Aliases" : null,
  "TimeZone" : {
    "UtcCurrentOffset" : 9,
    "RawOffset" : 9,
    "TimezoneId" : "Australia/Adelaide",
    "DisplayName" : "(UTC+09:30) Adelaide"
  }
}, {
  "Code" : "BR0016",
  "CountryCode" : "BR",
  "Name" : "Areia Branca",
  "LatGeodetic" : -4.824016571044922,
  "Lon" : -37.04338455200195,
  "Locode" : "BRARE",
  "Aliases" : [ "Luis Fausto de Medeiros", "Porto-Ilha", "Salineiro Terminal", "Termisa Terminal" ],
  "TimeZone" : {
    "UtcCurrentOffset" : -3,
    "RawOffset" : -3,
    "TimezoneId" : "America/Cayenne",
    "DisplayName" : "(UTC-03:00) Cayenne, Fortaleza"
  }
}, {
  "Code" : "NO0009",
  "CountryCode" : "NO",
  "Name" : "Arendal",
  "LatGeodetic" : 58.45833206176758,
  "Lon" : 8.771666526794434,
  "Locode" : "NOARE",
  "Aliases" : null,
  "TimeZone" : {
    "UtcCurrentOffset" : 2,
    "RawOffset" : 1,
    "TimezoneId" : "Europe/Berlin",
    "DisplayName" : "(UTC+01:00) Amsterdam, Berlin, Bern, Rome, Stockholm, Vienna"
  }
}, {
  "Code" : "CL0002",
  "CountryCode" : "CL",
  "Name" : "Arica",
  "LatGeodetic" : -18.463333129882812,
  "Lon" : -70.32333374023438,
  "Locode" : "CLARI",
  "Aliases" : null,
  "TimeZone" : {
    "UtcCurrentOffset" : -4,
    "RawOffset" : -4,
    "TimezoneId" : "America/Santiago",
    "DisplayName" : "(UTC-04:00) Santiago"
  }
}, {
  "Code" : "YI0002",
  "CountryCode" : "ES",
  "Name" : "Arrecife",
  "LatGeodetic" : 28.96666717529297,
  "Lon" : -13.53166675567627,
  "Locode" : "ESACE",
  "Aliases" : null,
  "TimeZone" : {
    "UtcCurrentOffset" : 1,
    "RawOffset" : 0,
    "TimezoneId" : "Europe/London",
    "DisplayName" : "(UTC+00:00) Dublin, Edinburgh, Lisbon, London"
  }
}, {
  "Code" : "DZ0003",
  "CountryCode" : "DZ",
  "Name" : "Arzew",
  "LatGeodetic" : 35.849998474121094,
  "Lon" : -0.2933333218097687,
  "Locode" : "DZAZW",
  "Aliases" : null,
  "TimeZone" : {
    "UtcCurrentOffset" : 1,
    "RawOffset" : 1,
    "TimezoneId" : "Africa/Lagos",
    "DisplayName" : "(UTC+01:00) West Central Africa"
  }
}, {
  "Code" : "IL0003",
  "CountryCode" : "IL",
  "Name" : "Ashdod",
  "LatGeodetic" : 31.858333587646484,
  "Lon" : 34.63833236694336,
  "Locode" : "ILASH",
  "Aliases" : null,
  "TimeZone" : {
    "UtcCurrentOffset" : 3,
    "RawOffset" : 2,
    "TimezoneId" : "Asia/Jerusalem",
    "DisplayName" : "(UTC+02:00) Jerusalem"
  }
}, {
  "Code" : "US0033",
  "CountryCode" : "US",
  "Name" : "Ashtabula",
  "LatGeodetic" : 41.92166519165039,
  "Lon" : -80.80500030517578,
  "Locode" : "USASF",
  "Aliases" : null,
  "TimeZone" : {
    "UtcCurrentOffset" : -4,
    "RawOffset" : -5,
    "TimezoneId" : "America/New_York",
    "DisplayName" : "(UTC-05:00) Eastern Time (US & Canada)"
  }
}, {
  "Code" : "TN0002",
  "CountryCode" : "TN",
  "Name" : "Ashtart",
  "LatGeodetic" : 34.223331451416016,
  "Lon" : 11.391666412353516,
  "Locode" : "TNASH",
  "Aliases" : null,
  "TimeZone" : {
    "UtcCurrentOffset" : 1,
    "RawOffset" : 1,
    "TimezoneId" : "Africa/Lagos",
    "DisplayName" : "(UTC+01:00) West Central Africa"
  }
}, {
  "Code" : "DK0012",
  "CountryCode" : "DK",
  "Name" : "Asnaes",
  "LatGeodetic" : 55.665000915527344,
  "Lon" : 11.08666706085205,
  "Locode" : "DKASS",
  "Aliases" : null,
  "TimeZone" : {
    "UtcCurrentOffset" : 2,
    "RawOffset" : 1,
    "TimezoneId" : "Europe/Paris",
    "DisplayName" : "(UTC+01:00) Brussels, Copenhagen, Madrid, Paris"
  }
}, {
  "Code" : "GR0034",
  "CountryCode" : "GR",
  "Name" : "Aspropyrgos",
  "LatGeodetic" : 38.02333450317383,
  "Lon" : 23.59000015258789,
  "Locode" : "GRASS",
  "Aliases" : null,
  "TimeZone" : {
    "UtcCurrentOffset" : 3,
    "RawOffset" : 2,
    "TimezoneId" : "Europe/Bucharest",
    "DisplayName" : "(UTC+02:00) Athens, Bucharest"
  }
}, {
  "Code" : "ER0001",
  "CountryCode" : "ER",
  "Name" : "Assab",
  "LatGeodetic" : 13.0,
  "Lon" : 42.75,
  "Locode" : "ERASA",
  "Aliases" : null,
  "TimeZone" : {
    "UtcCurrentOffset" : 3,
    "RawOffset" : 3,
    "TimezoneId" : "Africa/Nairobi",
    "DisplayName" : "(UTC+03:00) Nairobi"
  }
}, {
  "Code" : "DK0013",
  "CountryCode" : "DK",
  "Name" : "Assens",
  "LatGeodetic" : 55.27166748046875,
  "Lon" : 9.887499809265137,
  "Locode" : "DKASN",
  "Aliases" : null,
  "TimeZone" : {
    "UtcCurrentOffset" : 2,
    "RawOffset" : 1,
    "TimezoneId" : "Europe/Paris",
    "DisplayName" : "(UTC+01:00) Brussels, Copenhagen, Madrid, Paris"
  }
}, {
  "Code" : "US0034",
  "CountryCode" : "US",
  "Name" : "Astoria, Oregon, U.S.A.",
  "LatGeodetic" : 46.194000244140625,
  "Lon" : -123.8395004272461,
  "Locode" : "USAST",
  "Aliases" : null,
  "TimeZone" : {
    "UtcCurrentOffset" : -7,
    "RawOffset" : -8,
    "TimezoneId" : "America/Los_Angeles",
    "DisplayName" : "(UTC-08:00) Pacific Time (US & Canada)"
  }
}, {
  "Code" : "JP0015",
  "CountryCode" : "JP",
  "Name" : "Atsumi",
  "LatGeodetic" : 34.665000915527344,
  "Lon" : 137.0800018310547,
  "Locode" : "JPATM",
  "Aliases" : null,
  "TimeZone" : {
    "UtcCurrentOffset" : 9,
    "RawOffset" : 9,
    "TimezoneId" : "Asia/Tokyo",
    "DisplayName" : "(UTC+09:00) Osaka, Sapporo, Tokyo"
  }
}, {
  "Code" : "NZ0003",
  "CountryCode" : "NZ",
  "Name" : "Auckland",
  "LatGeodetic" : -36.836666107177734,
  "Lon" : 174.77166748046875,
  "Locode" : "NZAKL",
  "Aliases" : [ "Devonport, New Zealand" ],
  "TimeZone" : {
    "UtcCurrentOffset" : 12,
    "RawOffset" : 12,
    "TimezoneId" : "Pacific/Auckland",
    "DisplayName" : "(UTC+12:00) Auckland, Wellington"
  }
}, {
  "Code" : "IT0012",
  "CountryCode" : "IT",
  "Name" : "Augusta, (Sicily), Italy",
  "LatGeodetic" : 37.198333740234375,
  "Lon" : 15.21500015258789,
  "Locode" : "ITAUG",
  "Aliases" : null,
  "TimeZone" : {
    "UtcCurrentOffset" : 2,
    "RawOffset" : 1,
    "TimezoneId" : "Europe/Berlin",
    "DisplayName" : "(UTC+01:00) Amsterdam, Berlin, Bern, Rome, Stockholm, Vienna"
  }
}, {
  "Code" : "PT0001",
  "CountryCode" : "PT",
  "Name" : "Aveiro",
  "LatGeodetic" : 40.6591682434082,
  "Lon" : -8.709166526794434,
  "Locode" : "PTAVE",
  "Aliases" : null,
  "TimeZone" : {
    "UtcCurrentOffset" : 1,
    "RawOffset" : 0,
    "TimezoneId" : "Europe/London",
    "DisplayName" : "(UTC+00:00) Dublin, Edinburgh, Lisbon, London"
  }
}, {
  "Code" : "ES0015",
  "CountryCode" : "ES",
  "Name" : "Aviles",
  "LatGeodetic" : 43.592498779296875,
  "Lon" : -5.933333396911621,
  "Locode" : "ESAVS",
  "Aliases" : [ "Luarca" ],
  "TimeZone" : {
    "UtcCurrentOffset" : 2,
    "RawOffset" : 1,
    "TimezoneId" : "Europe/Paris",
    "DisplayName" : "(UTC+01:00) Brussels, Copenhagen, Madrid, Paris"
  }
}, {
  "Code" : "US0042",
  "CountryCode" : "US",
  "Name" : "Avondale",
  "LatGeodetic" : 29.9264667,
  "Lon" : -90.1913,
  "Locode" : "USAVD",
  "Aliases" : null,
  "TimeZone" : {
    "UtcCurrentOffset" : -5,
    "RawOffset" : -6,
    "TimezoneId" : "America/Chicago",
    "DisplayName" : "(UTC-06:00) Central Time (US & Canada)"
  }
}, {
  "Code" : "GB0022",
  "CountryCode" : "GB",
  "Name" : "Avonmouth",
  "LatGeodetic" : 51.50666809082031,
  "Lon" : -2.7166666984558105,
  "Locode" : "GBAVO",
  "Aliases" : null,
  "TimeZone" : {
    "UtcCurrentOffset" : 1,
    "RawOffset" : 0,
    "TimezoneId" : "Europe/London",
    "DisplayName" : "(UTC+00:00) Dublin, Edinburgh, Lisbon, London"
  }
}, {
  "Code" : "VN0001",
  "CountryCode" : "VN",
  "Name" : "Ba Ngoi",
  "LatGeodetic" : 11.894116666666667,
  "Lon" : 109.1486,
  "Locode" : "",
  "Aliases" : null,
  "TimeZone" : {
    "UtcCurrentOffset" : 7,
    "RawOffset" : 7,
    "TimezoneId" : "Asia/Bangkok",
    "DisplayName" : "(UTC+07:00) Bangkok, Hanoi, Jakarta"
  }
}, {
  "Code" : "AR0005",
  "CountryCode" : "AR",
  "Name" : "Bahia Blanca",
  "LatGeodetic" : -38.794166564941406,
  "Lon" : -62.2691650390625,
  "Locode" : "ARBHI",
  "Aliases" : [ "Ingeniero White" ],
  "TimeZone" : {
    "UtcCurrentOffset" : -3,
    "RawOffset" : -3,
    "TimezoneId" : "America/Argentina/Buenos_Aires",
    "DisplayName" : "(UTC-03:00) City of Buenos Aires"
  }
}, {
  "Code" : "IR0004",
  "CountryCode" : "IR",
  "Name" : "Bahregan",
  "LatGeodetic" : 29.71500015258789,
  "Lon" : 50.16999816894531,
  "Locode" : "IRIAQ",
  "Aliases" : [ "Bahregan Oil Centre (BOC)", "Barkan", "Ras Bahregan" ],
  "TimeZone" : {
    "UtcCurrentOffset" : 4,
    "RawOffset" : 3,
    "TimezoneId" : "Asia/Tehran",
    "DisplayName" : "(UTC+03:30) Tehran"
  }
}, {
  "Code" : "CA0017",
  "CountryCode" : "CA",
  "Name" : "Baie Comeau",
  "LatGeodetic" : 49.25583267211914,
  "Lon" : -68.12999725341797,
  "Locode" : "CABCO",
  "Aliases" : null,
  "TimeZone" : {
    "UtcCurrentOffset" : -4,
    "RawOffset" : -5,
    "TimezoneId" : "America/New_York",
    "DisplayName" : "(UTC-05:00) Eastern Time (US & Canada)"
  }
}, {
  "Code" : "HR0001",
  "CountryCode" : "HR",
  "Name" : "Bakar",
  "LatGeodetic" : 45.3025016784668,
  "Lon" : 14.546333312988281,
  "Locode" : "HRBAK",
  "Aliases" : null,
  "TimeZone" : {
    "UtcCurrentOffset" : 2,
    "RawOffset" : 1,
    "TimezoneId" : "Europe/Warsaw",
    "DisplayName" : "(UTC+01:00) Sarajevo, Skopje, Warsaw, Zagreb"
  }
}, {
  "Code" : "PA0005",
  "CountryCode" : "PA",
  "Name" : "Balboa",
  "LatGeodetic" : 8.953332901000977,
  "Lon" : -79.57083129882812,
  "Locode" : "PABLB",
  "Aliases" : [ "Rodman Naval Station" ],
  "TimeZone" : {
    "UtcCurrentOffset" : -5,
    "RawOffset" : -5,
    "TimezoneId" : "America/Bogota",
    "DisplayName" : "(UTC-05:00) Bogota, Lima, Quito, Rio Branco"
  }
}, {
  "Code" : "ID0025",
  "CountryCode" : "ID",
  "Name" : "Balikpapan",
  "LatGeodetic" : -1.2633333206176758,
  "Lon" : 116.80833435058594,
  "Locode" : "IDBPN",
  "Aliases" : null,
  "TimeZone" : {
    "UtcCurrentOffset" : 8,
    "RawOffset" : 8,
    "TimezoneId" : "Asia/Singapore",
    "DisplayName" : "(UTC+08:00) Kuala Lumpur, Singapore"
  }
}, {
  "Code" : "US0044",
  "CountryCode" : "US",
  "Name" : "Baltimore - Locust Point, Maryland, U.S.A.",
  "LatGeodetic" : 39.2783317565918,
  "Lon" : -76.59166717529297,
  "Locode" : "USBAL",
  "Aliases" : [ "Baltimore, U.S.A. (WS)" ],
  "TimeZone" : {
    "UtcCurrentOffset" : -4,
    "RawOffset" : -5,
    "TimezoneId" : "America/New_York",
    "DisplayName" : "(UTC-05:00) Eastern Time (US & Canada)"
  }
}, {
  "Code" : "ZI0002",
  "CountryCode" : "CD",
  "Name" : "Banana",
  "LatGeodetic" : -6.041666507720947,
  "Lon" : 12.40333366394043,
  "Locode" : "CDBNW",
  "Aliases" : null,
  "TimeZone" : {
    "UtcCurrentOffset" : 1,
    "RawOffset" : 1,
    "TimezoneId" : "Africa/Lagos",
    "DisplayName" : "(UTC+01:00) West Central Africa"
  }
}, {
  "Code" : "IR0005",
  "CountryCode" : "IR",
  "Name" : "Bandar Abbas",
  "LatGeodetic" : 27.141666412353516,
  "Lon" : 56.20333480834961,
  "Locode" : "IRBND",
  "Aliases" : [ "Bandar Shahid Bahonar", "Bandar Shahid Rejaie", "Shahid Bahonar" ],
  "TimeZone" : {
    "UtcCurrentOffset" : 4,
    "RawOffset" : 3,
    "TimezoneId" : "Asia/Tehran",
    "DisplayName" : "(UTC+03:30) Tehran"
  }
}, {
  "Code" : "IR0009",
  "CountryCode" : "IR",
  "Name" : "Bandar Imam Khomeini",
  "LatGeodetic" : 30.418333053588867,
  "Lon" : 49.09000015258789,
  "Locode" : "IRBKM",
  "Aliases" : null,
  "TimeZone" : {
    "UtcCurrentOffset" : 4,
    "RawOffset" : 3,
    "TimezoneId" : "Asia/Tehran",
    "DisplayName" : "(UTC+03:30) Tehran"
  }
}, {
  "Code" : "IR0010",
  "CountryCode" : "IR",
  "Name" : "Bandar Mahshahr",
  "LatGeodetic" : 30.461666107177734,
  "Lon" : 49.18000030517578,
  "Locode" : "IRMRX",
  "Aliases" : null,
  "TimeZone" : {
    "UtcCurrentOffset" : 4,
    "RawOffset" : 3,
    "TimezoneId" : "Asia/Tehran",
    "DisplayName" : "(UTC+03:30) Tehran"
  }
}, {
  "Code" : "IR0012",
  "CountryCode" : "IR",
  "Name" : "Bandar Taheri",
  "LatGeodetic" : 27.640916666666666,
  "Lon" : 52.343916666666665,
  "Locode" : "",
  "Aliases" : [ "Taheri", "Bandar Tahiri", "Tahiri", "Bandar-e Taheri", "Bandar-i Tahiri", "Bandar Siraf", "Siraf", "Bandar-e Siraf", "Bandar-i Siraf" ],
  "TimeZone" : {
    "UtcCurrentOffset" : 4,
    "RawOffset" : 3,
    "TimezoneId" : "Asia/Tehran",
    "DisplayName" : "(UTC+03:30) Tehran"
  }
}, {
  "Code" : "TR0018",
  "CountryCode" : "TR",
  "Name" : "Bandirma",
  "LatGeodetic" : 40.35499954223633,
  "Lon" : 27.961666107177734,
  "Locode" : "TRBDM",
  "Aliases" : null,
  "TimeZone" : {
    "UtcCurrentOffset" : 3,
    "RawOffset" : 3,
    "TimezoneId" : "Europe/Istanbul",
    "DisplayName" : "(UTC+03:00) Istanbul"
  }
}, {
  "Code" : "TH0001",
  "CountryCode" : "TH",
  "Name" : "Bangkok",
  "LatGeodetic" : 13.679999351501465,
  "Lon" : 100.52166748046875,
  "Locode" : "THBKK",
  "Aliases" : [ "Bang Hua Sua", "Klong Toey", "Krung Thep", "Sathupradit" ],
  "TimeZone" : {
    "UtcCurrentOffset" : 7,
    "RawOffset" : 7,
    "TimezoneId" : "Asia/Bangkok",
    "DisplayName" : "(UTC+07:00) Bangkok, Hanoi, Jakarta"
  }
}, {
  "Code" : "GB0030",
  "CountryCode" : "GB",
  "Name" : "Bangor, Northern Ireland, U.K.",
  "LatGeodetic" : 54.6664924621582,
  "Lon" : -5.6706366539001465,
  "Locode" : "",
  "Aliases" : null,
  "TimeZone" : {
    "UtcCurrentOffset" : 1,
    "RawOffset" : 0,
    "TimezoneId" : "Europe/London",
    "DisplayName" : "(UTC+00:00) Dublin, Edinburgh, Lisbon, London"
  }
}, {
  "Code" : "SY0001",
  "CountryCode" : "SY",
  "Name" : "Banias",
  "LatGeodetic" : 35.233333587646484,
  "Lon" : 35.91666793823242,
  "Locode" : "SYBAN",
  "Aliases" : null,
  "TimeZone" : {
    "UtcCurrentOffset" : 3,
    "RawOffset" : 2,
    "TimezoneId" : "Asia/Damascus",
    "DisplayName" : "(UTC+02:00) Damascus"
  }
}, {
  "Code" : "ID0029",
  "CountryCode" : "ID",
  "Name" : "Banjarmasin",
  "LatGeodetic" : -3.3299999237060547,
  "Lon" : 114.55500030517578,
  "Locode" : "IDBDJ",
  "Aliases" : null,
  "TimeZone" : {
    "UtcCurrentOffset" : 8,
    "RawOffset" : 8,
    "TimezoneId" : "Asia/Singapore",
    "DisplayName" : "(UTC+08:00) Kuala Lumpur, Singapore"
  }
}, {
  "Code" : "GM0001",
  "CountryCode" : "GM",
  "Name" : "Banjul",
  "LatGeodetic" : 13.443333625793457,
  "Lon" : -16.573333740234375,
  "Locode" : "GMBJL",
  "Aliases" : [ "Bathurst, Gambia" ],
  "TimeZone" : {
    "UtcCurrentOffset" : 0,
    "RawOffset" : 0,
    "TimezoneId" : "Atlantic/Reykjavik",
    "DisplayName" : "(UTC+00:00) Monrovia, Reykjavik"
  }
}, {
  "Code" : "IE0009",
  "CountryCode" : "IE",
  "Name" : "Bantry Bay",
  "LatGeodetic" : 51.6974983215332,
  "Lon" : -9.535833358764648,
  "Locode" : "IEBYT",
  "Aliases" : [ "Leahill Quarry", "Whiddy Island" ],
  "TimeZone" : {
    "UtcCurrentOffset" : 1,
    "RawOffset" : 0,
    "TimezoneId" : "Europe/London",
    "DisplayName" : "(UTC+00:00) Dublin, Edinburgh, Lisbon, London"
  }
}, {
  "Code" : "YU0001",
  "CountryCode" : "ME",
  "Name" : "Bar",
  "LatGeodetic" : 42.095001220703125,
  "Lon" : 19.081666946411133,
  "Locode" : "MEBAR",
  "Aliases" : null,
  "TimeZone" : {
    "UtcCurrentOffset" : 2,
    "RawOffset" : 1,
    "TimezoneId" : "Europe/Budapest",
    "DisplayName" : "(UTC+01:00) Belgrade, Bratislava, Budapest, Ljubljana, Prague"
  }
}, {
  "Code" : "DO0003",
  "CountryCode" : "DO",
  "Name" : "Barahona",
  "LatGeodetic" : 18.206844329833984,
  "Lon" : -71.09003448486328,
  "Locode" : "DOBRX",
  "Aliases" : null,
  "TimeZone" : {
    "UtcCurrentOffset" : -4,
    "RawOffset" : -4,
    "TimezoneId" : "America/La_Paz",
    "DisplayName" : "(UTC-04:00) Georgetown, La Paz, Manaus, San Juan"
  }
}, {
  "Code" : "ES0018",
  "CountryCode" : "ES",
  "Name" : "Barcelona, Spain",
  "LatGeodetic" : 41.345001220703125,
  "Lon" : 2.1683332920074463,
  "Locode" : "ESBCN",
  "Aliases" : null,
  "TimeZone" : {
    "UtcCurrentOffset" : 2,
    "RawOffset" : 1,
    "TimezoneId" : "Europe/Paris",
    "DisplayName" : "(UTC+01:00) Brussels, Copenhagen, Madrid, Paris"
  }
}, {
  "Code" : "IT0016",
  "CountryCode" : "IT",
  "Name" : "Bari",
  "LatGeodetic" : 41.14083480834961,
  "Lon" : 16.860000610351562,
  "Locode" : "ITBRI",
  "Aliases" : null,
  "TimeZone" : {
    "UtcCurrentOffset" : 2,
    "RawOffset" : 1,
    "TimezoneId" : "Europe/Berlin",
    "DisplayName" : "(UTC+01:00) Amsterdam, Berlin, Bern, Rome, Stockholm, Vienna"
  }
}, {
  "Code" : "BR0023",
  "CountryCode" : "BR",
  "Name" : "Barra do Riacho",
  "LatGeodetic" : -19.844799041748047,
  "Lon" : -40.05622100830078,
  "Locode" : "",
  "Aliases" : [ "Aracruz", "Portocel" ],
  "TimeZone" : {
    "UtcCurrentOffset" : -3,
    "RawOffset" : -3,
    "TimezoneId" : "America/Sao_Paulo",
    "DisplayName" : "(UTC-03:00) Brasilia"
  }
}, {
  "Code" : "CO0005",
  "CountryCode" : "CO",
  "Name" : "Barranquilla",
  "LatGeodetic" : 10.970833778381348,
  "Lon" : -74.7558364868164,
  "Locode" : "COBAQ",
  "Aliases" : [ "Monomeros" ],
  "TimeZone" : {
    "UtcCurrentOffset" : -5,
    "RawOffset" : -5,
    "TimezoneId" : "America/Bogota",
    "DisplayName" : "(UTC-05:00) Bogota, Lima, Quito, Rio Branco"
  }
}, {
  "Code" : "AU0021",
  "CountryCode" : "AU",
  "Name" : "Barrow Island",
  "LatGeodetic" : -20.81281280517578,
  "Lon" : 115.5650863647461,
  "Locode" : "AUBWB",
  "Aliases" : null,
  "TimeZone" : {
    "UtcCurrentOffset" : 8,
    "RawOffset" : 8,
    "TimezoneId" : "Australia/Perth",
    "DisplayName" : "(UTC+08:00) Perth"
  }
}, {
  "Code" : "GB0037",
  "CountryCode" : "GB",
  "Name" : "Barrow-in-Furness",
  "LatGeodetic" : 54.100791931152344,
  "Lon" : -3.2129154205322266,
  "Locode" : "",
  "Aliases" : null,
  "TimeZone" : {
    "UtcCurrentOffset" : 1,
    "RawOffset" : 0,
    "TimezoneId" : "Europe/London",
    "DisplayName" : "(UTC+00:00) Dublin, Edinburgh, Lisbon, London"
  }
}, {
  "Code" : "GB0038",
  "CountryCode" : "GB",
  "Name" : "Barry",
  "LatGeodetic" : 51.391666412353516,
  "Lon" : -3.258333206176758,
  "Locode" : "GBBAD",
  "Aliases" : null,
  "TimeZone" : {
    "UtcCurrentOffset" : 1,
    "RawOffset" : 0,
    "TimezoneId" : "Europe/London",
    "DisplayName" : "(UTC+00:00) Dublin, Edinburgh, Lisbon, London"
  }
}, {
  "Code" : "FR0018",
  "CountryCode" : "FR",
  "Name" : "Bastia",
  "LatGeodetic" : 42.70249938964844,
  "Lon" : 9.454999923706055,
  "Locode" : "FRBIA",
  "Aliases" : [ "Port St Nicholas", "Port Toga" ],
  "TimeZone" : {
    "UtcCurrentOffset" : 2,
    "RawOffset" : 1,
    "TimezoneId" : "Europe/Paris",
    "DisplayName" : "(UTC+01:00) Brussels, Copenhagen, Madrid, Paris"
  }
}, {
  "Code" : "CN0008",
  "CountryCode" : "CN",
  "Name" : "Basuo",
  "LatGeodetic" : 19.10333251953125,
  "Lon" : 108.62333679199219,
  "Locode" : "CNBSP",
  "Aliases" : null,
  "TimeZone" : {
    "UtcCurrentOffset" : 8,
    "RawOffset" : 8,
    "TimezoneId" : "Asia/Shanghai",
    "DisplayName" : "(UTC+08:00) Beijing, Chongqing, Hong Kong, Urumqi"
  }
}, {
  "Code" : "PH0017",
  "CountryCode" : "PH",
  "Name" : "Bataan",
  "LatGeodetic" : 14.524999618530273,
  "Lon" : 120.63500213623047,
  "Locode" : "PHBTN",
  "Aliases" : [ "Limay (Philippines)" ],
  "TimeZone" : {
    "UtcCurrentOffset" : 8,
    "RawOffset" : 8,
    "TimezoneId" : "Asia/Singapore",
    "DisplayName" : "(UTC+08:00) Kuala Lumpur, Singapore"
  }
}, {
  "Code" : "PH0018",
  "CountryCode" : "PH",
  "Name" : "Batangas",
  "LatGeodetic" : 13.721290588378906,
  "Lon" : 121.05397033691406,
  "Locode" : "PHBTG",
  "Aliases" : [ "Tabangao" ],
  "TimeZone" : {
    "UtcCurrentOffset" : 8,
    "RawOffset" : 8,
    "TimezoneId" : "Asia/Singapore",
    "DisplayName" : "(UTC+08:00) Kuala Lumpur, Singapore"
  }
}, {
  "Code" : "US0053",
  "CountryCode" : "US",
  "Name" : "Baton Rouge",
  "LatGeodetic" : 30.4665833,
  "Lon" : -91.1996333,
  "Locode" : "USBTR",
  "Aliases" : null,
  "TimeZone" : {
    "UtcCurrentOffset" : -5,
    "RawOffset" : -6,
    "TimezoneId" : "America/Chicago",
    "DisplayName" : "(UTC-06:00) Central Time (US & Canada)"
  }
}, {
  "Code" : "XR0002",
  "CountryCode" : "GE",
  "Name" : "Batumi",
  "LatGeodetic" : 41.650001525878906,
  "Lon" : 41.64666748046875,
  "Locode" : "GEBUS",
  "Aliases" : null,
  "TimeZone" : {
    "UtcCurrentOffset" : 4,
    "RawOffset" : 4,
    "TimezoneId" : "Asia/Tbilisi",
    "DisplayName" : "(UTC+04:00) Tbilisi"
  }
}, {
  "Code" : "FR0019",
  "CountryCode" : "FR",
  "Name" : "Bayonne, France",
  "LatGeodetic" : 43.494998931884766,
  "Lon" : -1.472499966621399,
  "Locode" : "FRBAY",
  "Aliases" : null,
  "TimeZone" : {
    "UtcCurrentOffset" : 2,
    "RawOffset" : 1,
    "TimezoneId" : "Europe/Paris",
    "DisplayName" : "(UTC+01:00) Brussels, Copenhagen, Madrid, Paris"
  }
}, {
  "Code" : "US0061",
  "CountryCode" : "US",
  "Name" : "Baytown",
  "LatGeodetic" : 29.726667404174805,
  "Lon" : -95.02333068847656,
  "Locode" : "USHPY",
  "Aliases" : null,
  "TimeZone" : {
    "UtcCurrentOffset" : -5,
    "RawOffset" : -6,
    "TimezoneId" : "America/Chicago",
    "DisplayName" : "(UTC-06:00) Central Time (US & Canada)"
  }
}, {
  "Code" : "US0064",
  "CountryCode" : "US",
  "Name" : "Beaumont",
  "LatGeodetic" : 30.0766658782959,
  "Lon" : -94.08333587646484,
  "Locode" : "USBPT",
  "Aliases" : [ "Atreco" ],
  "TimeZone" : {
    "UtcCurrentOffset" : -5,
    "RawOffset" : -6,
    "TimezoneId" : "America/Chicago",
    "DisplayName" : "(UTC-06:00) Central Time (US & Canada)"
  }
}, {
  "Code" : "CA0037",
  "CountryCode" : "CA",
  "Name" : "Becancour",
  "LatGeodetic" : 46.40341567993164,
  "Lon" : -72.37677001953125,
  "Locode" : "CABEC",
  "Aliases" : null,
  "TimeZone" : {
    "UtcCurrentOffset" : -4,
    "RawOffset" : -5,
    "TimezoneId" : "America/New_York",
    "DisplayName" : "(UTC-05:00) Eastern Time (US & Canada)"
  }
}, {
  "Code" : "IN0012",
  "CountryCode" : "IN",
  "Name" : "Bedi Anchorage",
  "LatGeodetic" : 22.633333206176758,
  "Lon" : 70.03333282470703,
  "Locode" : "",
  "Aliases" : null,
  "TimeZone" : {
    "UtcCurrentOffset" : 5,
    "RawOffset" : 5,
    "TimezoneId" : "Asia/Kolkata",
    "DisplayName" : "(UTC+05:30) Chennai, Kolkata, Mumbai, New Delhi"
  }
}, {
  "Code" : "MZ0006",
  "CountryCode" : "MZ",
  "Name" : "Beira",
  "LatGeodetic" : -19.821666717529297,
  "Lon" : 34.8316650390625,
  "Locode" : "MZBEW",
  "Aliases" : null,
  "TimeZone" : {
    "UtcCurrentOffset" : 2,
    "RawOffset" : 2,
    "TimezoneId" : "Africa/Johannesburg",
    "DisplayName" : "(UTC+02:00) Harare, Pretoria"
  }
}, {
  "Code" : "LB0001",
  "CountryCode" : "LB",
  "Name" : "Beirut",
  "LatGeodetic" : 33.913333892822266,
  "Lon" : 35.5433349609375,
  "Locode" : "LBBEY",
  "Aliases" : [ "Beyrouth", "Dora Terminal" ],
  "TimeZone" : {
    "UtcCurrentOffset" : 3,
    "RawOffset" : 2,
    "TimezoneId" : "Asia/Beirut",
    "DisplayName" : "(UTC+02:00) Beirut"
  }
}, {
  "Code" : "DZ0005",
  "CountryCode" : "DZ",
  "Name" : "Bejaia",
  "LatGeodetic" : 36.755001068115234,
  "Lon" : 5.098333358764648,
  "Locode" : "DZBJA",
  "Aliases" : null,
  "TimeZone" : {
    "UtcCurrentOffset" : 1,
    "RawOffset" : 1,
    "TimezoneId" : "Africa/Lagos",
    "DisplayName" : "(UTC+01:00) West Central Africa"
  }
}, {
  "Code" : "ID0038",
  "CountryCode" : "ID",
  "Name" : "Belawan",
  "LatGeodetic" : 3.7899999618530273,
  "Lon" : 98.69666290283203,
  "Locode" : "IDBLW",
  "Aliases" : [ "Citra Ujung Baru", "Gabion", "Medan" ],
  "TimeZone" : {
    "UtcCurrentOffset" : 7,
    "RawOffset" : 7,
    "TimezoneId" : "Asia/Bangkok",
    "DisplayName" : "(UTC+07:00) Bangkok, Hanoi, Jakarta"
  }
}, {
  "Code" : "BR0025",
  "CountryCode" : "BR",
  "Name" : "Belem",
  "LatGeodetic" : -1.440000057220459,
  "Lon" : -48.525001525878906,
  "Locode" : "BRBEL",
  "Aliases" : [ "Miramar Oil Terminal" ],
  "TimeZone" : {
    "UtcCurrentOffset" : -3,
    "RawOffset" : -3,
    "TimezoneId" : "America/Cayenne",
    "DisplayName" : "(UTC-03:00) Cayenne, Fortaleza"
  }
}, {
  "Code" : "GB0042",
  "CountryCode" : "GB",
  "Name" : "Belfast, U.K.",
  "LatGeodetic" : 54.625,
  "Lon" : -5.891666889190674,
  "Locode" : "GBBEL",
  "Aliases" : null,
  "TimeZone" : {
    "UtcCurrentOffset" : 1,
    "RawOffset" : 0,
    "TimezoneId" : "Europe/London",
    "DisplayName" : "(UTC+00:00) Dublin, Edinburgh, Lisbon, London"
  }
}, {
  "Code" : "ID0039",
  "CountryCode" : "ID",
  "Name" : "Belida Marine Terminal",
  "LatGeodetic" : 4.21999979019165,
  "Lon" : 105.04666900634766,
  "Locode" : "",
  "Aliases" : null,
  "TimeZone" : {
    "UtcCurrentOffset" : 7,
    "RawOffset" : 7,
    "TimezoneId" : "Asia/Bangkok",
    "DisplayName" : "(UTC+07:00) Bangkok, Hanoi, Jakarta"
  }
}, {
  "Code" : "CN0009",
  "CountryCode" : "CN",
  "Name" : "Bei Hai",
  "LatGeodetic" : 21.475000381469727,
  "Lon" : 109.0616683959961,
  "Locode" : "CNBHY",
  "Aliases" : null,
  "TimeZone" : {
    "UtcCurrentOffset" : 8,
    "RawOffset" : 8,
    "TimezoneId" : "Asia/Shanghai",
    "DisplayName" : "(UTC+08:00) Beijing, Chongqing, Hong Kong, Urumqi"
  }
}, {
  "Code" : "BZ0001",
  "CountryCode" : "BZ",
  "Name" : "Belize",
  "LatGeodetic" : 17.467500686645508,
  "Lon" : -88.19416809082031,
  "Locode" : "BZBZE",
  "Aliases" : [ "Esso Terminal (Belize)", "Fort Street Tourism Village", "Witconcrete (Belize Sugar Industries)" ],
  "TimeZone" : {
    "UtcCurrentOffset" : -6,
    "RawOffset" : -6,
    "TimezoneId" : "America/Guatemala",
    "DisplayName" : "(UTC-06:00) Central America"
  }
}, {
  "Code" : "AU0027",
  "CountryCode" : "AU",
  "Name" : "Bell Bay",
  "LatGeodetic" : -41.13833236694336,
  "Lon" : 146.86500549316406,
  "Locode" : "AUBEL",
  "Aliases" : null,
  "TimeZone" : {
    "UtcCurrentOffset" : 10,
    "RawOffset" : 10,
    "TimezoneId" : "Australia/Hobart",
    "DisplayName" : "(UTC+10:00) Hobart"
  }
}, {
  "Code" : "US0070",
  "CountryCode" : "US",
  "Name" : "Belle Chase",
  "LatGeodetic" : 29.854372024536133,
  "Lon" : -89.97844696044922,
  "Locode" : "USBCS",
  "Aliases" : null,
  "TimeZone" : {
    "UtcCurrentOffset" : -5,
    "RawOffset" : -6,
    "TimezoneId" : "America/Chicago",
    "DisplayName" : "(UTC-06:00) Central Time (US & Canada)"
  }
}, {
  "Code" : "CA0042",
  "CountryCode" : "CA",
  "Name" : "Belledune",
  "LatGeodetic" : 47.90999984741211,
  "Lon" : -65.84166717529297,
  "Locode" : "CABEL",
  "Aliases" : null,
  "TimeZone" : {
    "UtcCurrentOffset" : -3,
    "RawOffset" : -4,
    "TimezoneId" : "America/Halifax",
    "DisplayName" : "(UTC-04:00) Atlantic Time (Canada)"
  }
}, {
  "Code" : "LY0011",
  "CountryCode" : "LY",
  "Name" : "Benghazi",
  "LatGeodetic" : 32.11833190917969,
  "Lon" : 20.046667098999023,
  "Locode" : "LYBEN",
  "Aliases" : null,
  "TimeZone" : {
    "UtcCurrentOffset" : 2,
    "RawOffset" : 2,
    "TimezoneId" : "Africa/Tripoli",
    "DisplayName" : "(UTC+02:00) Tripoli"
  }
}, {
  "Code" : "US0072",
  "CountryCode" : "US",
  "Name" : "Benicia",
  "LatGeodetic" : 38.040000915527344,
  "Lon" : -122.17333221435547,
  "Locode" : "USBNC",
  "Aliases" : [ "Avon", "Crockett", "Hercules", "Mare Island", "Oleum", "Ozol", "Selby (USA)" ],
  "TimeZone" : {
    "UtcCurrentOffset" : -7,
    "RawOffset" : -8,
    "TimezoneId" : "America/Los_Angeles",
    "DisplayName" : "(UTC-08:00) Pacific Time (US & Canada)"
  }
}, {
  "Code" : "SO0004",
  "CountryCode" : "SO",
  "Name" : "Berbera",
  "LatGeodetic" : 10.4375,
  "Lon" : 44.98833465576172,
  "Locode" : "SOBBO",
  "Aliases" : null,
  "TimeZone" : {
    "UtcCurrentOffset" : 3,
    "RawOffset" : 3,
    "TimezoneId" : "Africa/Nairobi",
    "DisplayName" : "(UTC+03:00) Nairobi"
  }
}, {
  "Code" : "UA0007",
  "CountryCode" : "UA",
  "Name" : "Berdyansk",
  "LatGeodetic" : 46.74833297729492,
  "Lon" : 36.77333450317383,
  "Locode" : "UAERD",
  "Aliases" : null,
  "TimeZone" : {
    "UtcCurrentOffset" : 3,
    "RawOffset" : 2,
    "TimezoneId" : "Europe/Kiev",
    "DisplayName" : "(UTC+02:00) Helsinki, Kyiv, Riga, Sofia, Tallinn, Vilnius"
  }
}, {
  "Code" : "NO0012",
  "CountryCode" : "NO",
  "Name" : "Bergen",
  "LatGeodetic" : 60.391666412353516,
  "Lon" : 5.303333282470703,
  "Locode" : "NOBGO",
  "Aliases" : null,
  "TimeZone" : {
    "UtcCurrentOffset" : 2,
    "RawOffset" : 1,
    "TimezoneId" : "Europe/Berlin",
    "DisplayName" : "(UTC+01:00) Amsterdam, Berlin, Bern, Rome, Stockholm, Vienna"
  }
}, {
  "Code" : "IN0016",
  "CountryCode" : "IN",
  "Name" : "Bhavnagar",
  "LatGeodetic" : 21.75,
  "Lon" : 72.29166412353516,
  "Locode" : "INBHU",
  "Aliases" : null,
  "TimeZone" : {
    "UtcCurrentOffset" : 5,
    "RawOffset" : 5,
    "TimezoneId" : "Asia/Kolkata",
    "DisplayName" : "(UTC+05:30) Chennai, Kolkata, Mumbai, New Delhi"
  }
}, {
  "Code" : "ES0022",
  "CountryCode" : "ES",
  "Name" : "Bilbao",
  "LatGeodetic" : 43.349998474121094,
  "Lon" : -3.0333330631256104,
  "Locode" : "ESBIO",
  "Aliases" : [ "Abra", "Portugaleta", "Punta Ceballos Tanker Terminal", "Punta Lucero Tanker Terminal", "Santurce", "Zorroza" ],
  "TimeZone" : {
    "UtcCurrentOffset" : 2,
    "RawOffset" : 1,
    "TimezoneId" : "Europe/Paris",
    "DisplayName" : "(UTC+01:00) Brussels, Copenhagen, Madrid, Paris"
  }
}, {
  "Code" : "ID0049",
  "CountryCode" : "ID",
  "Name" : "Bima Marine Terminal",
  "LatGeodetic" : -5.7133331298828125,
  "Lon" : 107.12666320800781,
  "Locode" : "IDBMU",
  "Aliases" : [ "Bima Terminal" ],
  "TimeZone" : {
    "UtcCurrentOffset" : 7,
    "RawOffset" : 7,
    "TimezoneId" : "Asia/Bangkok",
    "DisplayName" : "(UTC+07:00) Bangkok, Hanoi, Jakarta"
  }
}, {
  "Code" : "MY0009",
  "CountryCode" : "MY",
  "Name" : "Bintulu",
  "LatGeodetic" : 3.259999990463257,
  "Lon" : 113.06999969482422,
  "Locode" : "MYBTU",
  "Aliases" : null,
  "TimeZone" : {
    "UtcCurrentOffset" : 8,
    "RawOffset" : 8,
    "TimezoneId" : "Asia/Singapore",
    "DisplayName" : "(UTC+08:00) Kuala Lumpur, Singapore"
  }
}, {
  "Code" : "MY0010",
  "CountryCode" : "MY",
  "Name" : "Bintulu LNG Terminal",
  "LatGeodetic" : 3.2632665634155273,
  "Lon" : 113.05909729003906,
  "Locode" : "MYBTU",
  "Aliases" : [ "Kidurong" ],
  "TimeZone" : {
    "UtcCurrentOffset" : 8,
    "RawOffset" : 8,
    "TimezoneId" : "Asia/Singapore",
    "DisplayName" : "(UTC+08:00) Kuala Lumpur, Singapore"
  }
}, {
  "Code" : "GW0002",
  "CountryCode" : "GW",
  "Name" : "Bissau",
  "LatGeodetic" : 11.855583190917969,
  "Lon" : -15.572833061218262,
  "Locode" : "GWOXB",
  "Aliases" : null,
  "TimeZone" : {
    "UtcCurrentOffset" : 0,
    "RawOffset" : 0,
    "TimezoneId" : "Atlantic/Reykjavik",
    "DisplayName" : "(UTC+00:00) Monrovia, Reykjavik"
  }
}, {
  "Code" : "ID0052",
  "CountryCode" : "ID",
  "Name" : "Bitung",
  "LatGeodetic" : 1.434999942779541,
  "Lon" : 125.19166564941406,
  "Locode" : "IDBIT",
  "Aliases" : null,
  "TimeZone" : {
    "UtcCurrentOffset" : 8,
    "RawOffset" : 8,
    "TimezoneId" : "Asia/Singapore",
    "DisplayName" : "(UTC+08:00) Kuala Lumpur, Singapore"
  }
}, {
  "Code" : "TN0003",
  "CountryCode" : "TN",
  "Name" : "Bizerte",
  "LatGeodetic" : 37.276498,
  "Lon" : 9.8902712,
  "Locode" : "TNBIZ",
  "Aliases" : null,
  "TimeZone" : {
    "UtcCurrentOffset" : 1,
    "RawOffset" : 1,
    "TimezoneId" : "Africa/Lagos",
    "DisplayName" : "(UTC+01:00) West Central Africa"
  }
}, {
  "Code" : "ID0053",
  "CountryCode" : "ID",
  "Name" : "Blang Lancang",
  "LatGeodetic" : 5.268333435058594,
  "Lon" : 97.08333587646484,
  "Locode" : "IDBLL",
  "Aliases" : null,
  "TimeZone" : {
    "UtcCurrentOffset" : 7,
    "RawOffset" : 7,
    "TimezoneId" : "Asia/Bangkok",
    "DisplayName" : "(UTC+07:00) Bangkok, Hanoi, Jakarta"
  }
}, {
  "Code" : "NZ0006",
  "CountryCode" : "NZ",
  "Name" : "Bluff, New Zealand",
  "LatGeodetic" : -46.59333419799805,
  "Lon" : 168.34832763671875,
  "Locode" : "NZBLU",
  "Aliases" : null,
  "TimeZone" : {
    "UtcCurrentOffset" : 12,
    "RawOffset" : 12,
    "TimezoneId" : "Pacific/Auckland",
    "DisplayName" : "(UTC+12:00) Auckland, Wellington"
  }
}, {
  "Code" : "GB0051",
  "CountryCode" : "GB",
  "Name" : "Blyth",
  "LatGeodetic" : 55.128334045410156,
  "Lon" : -1.5,
  "Locode" : "GBBLY",
  "Aliases" : null,
  "TimeZone" : {
    "UtcCurrentOffset" : 1,
    "RawOffset" : 0,
    "TimezoneId" : "Europe/London",
    "DisplayName" : "(UTC+00:00) Dublin, Edinburgh, Lisbon, London"
  }
}, {
  "Code" : "US0084",
  "CountryCode" : "US",
  "Name" : "Boca Grande, Florida, U.S.A.",
  "LatGeodetic" : 26.719999313354492,
  "Lon" : -82.25499725341797,
  "Locode" : "USBCG",
  "Aliases" : [ "Boca Grande (USA)" ],
  "TimeZone" : {
    "UtcCurrentOffset" : -4,
    "RawOffset" : -5,
    "TimezoneId" : "America/New_York",
    "DisplayName" : "(UTC-05:00) Eastern Time (US & Canada)"
  }
}, {
  "Code" : "NO0014",
  "CountryCode" : "NO",
  "Name" : "Bodo",
  "LatGeodetic" : 67.28666687011719,
  "Lon" : 14.375,
  "Locode" : "NOBOO",
  "Aliases" : null,
  "TimeZone" : {
    "UtcCurrentOffset" : 2,
    "RawOffset" : 1,
    "TimezoneId" : "Europe/Berlin",
    "DisplayName" : "(UTC+01:00) Amsterdam, Berlin, Bern, Rome, Stockholm, Vienna"
  }
}, {
  "Code" : "ZR0001",
  "CountryCode" : "CD",
  "Name" : "Boma",
  "LatGeodetic" : -5.8640666007995605,
  "Lon" : 13.052749633789062,
  "Locode" : "CDBOA",
  "Aliases" : null,
  "TimeZone" : {
    "UtcCurrentOffset" : 1,
    "RawOffset" : 1,
    "TimezoneId" : "Africa/Lagos",
    "DisplayName" : "(UTC+01:00) West Central Africa"
  }
}, {
  "Code" : "AN0002",
  "CountryCode" : "BQ",
  "Name" : "Bonaire Terminal",
  "LatGeodetic" : 12.21833324432373,
  "Lon" : -68.38333129882812,
  "Locode" : "BQBON",
  "Aliases" : [ "Bopec Terminal", "Brasil (Bonaire)", "Goto" ],
  "TimeZone" : {
    "UtcCurrentOffset" : -4,
    "RawOffset" : -4,
    "TimezoneId" : "America/La_Paz",
    "DisplayName" : "(UTC-04:00) Georgetown, La Paz, Manaus, San Juan"
  }
}, {
  "Code" : "ID0054",
  "CountryCode" : "ID",
  "Name" : "Bontang",
  "LatGeodetic" : 0.09666666388511658,
  "Lon" : 117.4800033569336,
  "Locode" : "IDBXT",
  "Aliases" : [ "Badak LNG Terminal" ],
  "TimeZone" : {
    "UtcCurrentOffset" : 8,
    "RawOffset" : 8,
    "TimezoneId" : "Asia/Singapore",
    "DisplayName" : "(UTC+08:00) Kuala Lumpur, Singapore"
  }
}, {
  "Code" : "FR0028",
  "CountryCode" : "FR",
  "Name" : "Bordeaux",
  "LatGeodetic" : 44.85333251953125,
  "Lon" : -0.5633333325386047,
  "Locode" : "FRBOD",
  "Aliases" : null,
  "TimeZone" : {
    "UtcCurrentOffset" : 2,
    "RawOffset" : 1,
    "TimezoneId" : "Europe/Paris",
    "DisplayName" : "(UTC+01:00) Brussels, Copenhagen, Madrid, Paris"
  }
}, {
  "Code" : "GB0053",
  "CountryCode" : "GB",
  "Name" : "Boston, U.K.",
  "LatGeodetic" : 52.967498779296875,
  "Lon" : -0.013833332806825638,
  "Locode" : "GBBOS",
  "Aliases" : null,
  "TimeZone" : {
    "UtcCurrentOffset" : 1,
    "RawOffset" : 0,
    "TimezoneId" : "Europe/London",
    "DisplayName" : "(UTC+00:00) Dublin, Edinburgh, Lisbon, London"
  }
}, {
  "Code" : "US0090",
  "CountryCode" : "US",
  "Name" : "Boston, Massachusetts, U.S.A.",
  "LatGeodetic" : 42.358333587646484,
  "Lon" : -71.04166412353516,
  "Locode" : "USBOS",
  "Aliases" : [ "Chelsea", "Jeffries Point", "Revere" ],
  "TimeZone" : {
    "UtcCurrentOffset" : -4,
    "RawOffset" : -5,
    "TimezoneId" : "America/New_York",
    "DisplayName" : "(UTC-05:00) Eastern Time (US & Canada)"
  }
}, {
  "Code" : "AU0035",
  "CountryCode" : "AU",
  "Name" : "Botany Bay",
  "LatGeodetic" : -33.98666763305664,
  "Lon" : 151.211669921875,
  "Locode" : "AUBTB",
  "Aliases" : [ "Port Botany" ],
  "TimeZone" : {
    "UtcCurrentOffset" : 10,
    "RawOffset" : 10,
    "TimezoneId" : "Australia/Sydney",
    "DisplayName" : "(UTC+10:00) Canberra, Melbourne, Sydney"
  }
}, {
  "Code" : "CA0053",
  "CountryCode" : "CA",
  "Name" : "Botwood",
  "LatGeodetic" : 49.13666534423828,
  "Lon" : -55.33000183105469,
  "Locode" : "CABWD",
  "Aliases" : null,
  "TimeZone" : {
    "UtcCurrentOffset" : -2,
    "RawOffset" : -3,
    "TimezoneId" : "America/St_Johns",
    "DisplayName" : "(UTC-03:30) Newfoundland"
  }
}, {
  "Code" : "FR0031",
  "CountryCode" : "FR",
  "Name" : "Boulogne-sur-Mer",
  "LatGeodetic" : 50.7231330871582,
  "Lon" : 1.5739833116531372,
  "Locode" : "FRBOL",
  "Aliases" : null,
  "TimeZone" : {
    "UtcCurrentOffset" : 2,
    "RawOffset" : 1,
    "TimezoneId" : "Europe/Paris",
    "DisplayName" : "(UTC+01:00) Brussels, Copenhagen, Madrid, Paris"
  }
}, {
  "Code" : "BG0003",
  "CountryCode" : "BG",
  "Name" : "Bourgas",
  "LatGeodetic" : 42.483333587646484,
  "Lon" : 27.454999923706055,
  "Locode" : "BGBOJ",
  "Aliases" : [ "Pomorie" ],
  "TimeZone" : {
    "UtcCurrentOffset" : 3,
    "RawOffset" : 2,
    "TimezoneId" : "Europe/Kiev",
    "DisplayName" : "(UTC+02:00) Helsinki, Kyiv, Riga, Sofia, Tallinn, Vilnius"
  }
}, {
  "Code" : "LY0012",
  "CountryCode" : "LY",
  "Name" : "Bouri",
  "LatGeodetic" : 33.871665954589844,
  "Lon" : 12.670000076293945,
  "Locode" : "LYBOU",
  "Aliases" : null,
  "TimeZone" : {
    "UtcCurrentOffset" : 1,
    "RawOffset" : 1,
    "TimezoneId" : "Africa/Lagos",
    "DisplayName" : "(UTC+01:00) West Central Africa"
  }
}, {
  "Code" : "GB0056",
  "CountryCode" : "GB",
  "Name" : "Braefoot Bay",
  "LatGeodetic" : 56.03499984741211,
  "Lon" : -3.309999942779541,
  "Locode" : "GBBFB",
  "Aliases" : null,
  "TimeZone" : {
    "UtcCurrentOffset" : 1,
    "RawOffset" : 0,
    "TimezoneId" : "Europe/London",
    "DisplayName" : "(UTC+00:00) Dublin, Edinburgh, Lisbon, London"
  }
}, {
  "Code" : "DE0011",
  "CountryCode" : "DE",
  "Name" : "Brake",
  "LatGeodetic" : 53.3316650390625,
  "Lon" : 8.491666793823242,
  "Locode" : "DEBKE",
  "Aliases" : null,
  "TimeZone" : {
    "UtcCurrentOffset" : 2,
    "RawOffset" : 1,
    "TimezoneId" : "Europe/Berlin",
    "DisplayName" : "(UTC+01:00) Amsterdam, Berlin, Bern, Rome, Stockholm, Vienna"
  }
}, {
  "Code" : "NG0013",
  "CountryCode" : "NG",
  "Name" : "Brass Terminal",
  "LatGeodetic" : 4.0933332443237305,
  "Lon" : 6.324999809265137,
  "Locode" : "NGBRA",
  "Aliases" : null,
  "TimeZone" : {
    "UtcCurrentOffset" : 1,
    "RawOffset" : 1,
    "TimezoneId" : "Africa/Lagos",
    "DisplayName" : "(UTC+01:00) West Central Africa"
  }
}, {
  "Code" : "DE0013",
  "CountryCode" : "DE",
  "Name" : "Bremen",
  "LatGeodetic" : 53.119998931884766,
  "Lon" : 8.704999923706055,
  "Locode" : "DEBRE",
  "Aliases" : null,
  "TimeZone" : {
    "UtcCurrentOffset" : 2,
    "RawOffset" : 1,
    "TimezoneId" : "Europe/Berlin",
    "DisplayName" : "(UTC+01:00) Amsterdam, Berlin, Bern, Rome, Stockholm, Vienna"
  }
}, {
  "Code" : "DE0014",
  "CountryCode" : "DE",
  "Name" : "Bremerhaven",
  "LatGeodetic" : 53.563331604003906,
  "Lon" : 8.546667098999023,
  "Locode" : "DEBRV",
  "Aliases" : [ "Weserport" ],
  "TimeZone" : {
    "UtcCurrentOffset" : 2,
    "RawOffset" : 1,
    "TimezoneId" : "Europe/Berlin",
    "DisplayName" : "(UTC+01:00) Amsterdam, Berlin, Bern, Rome, Stockholm, Vienna"
  }
}, {
  "Code" : "FR0032",
  "CountryCode" : "FR",
  "Name" : "Brest",
  "LatGeodetic" : 48.371665954589844,
  "Lon" : -4.489999771118164,
  "Locode" : "FRBES",
  "Aliases" : null,
  "TimeZone" : {
    "UtcCurrentOffset" : 2,
    "RawOffset" : 1,
    "TimezoneId" : "Europe/Paris",
    "DisplayName" : "(UTC+01:00) Brussels, Copenhagen, Madrid, Paris"
  }
}, {
  "Code" : "NO0017",
  "CountryCode" : "NO",
  "Name" : "Brevik",
  "LatGeodetic" : 59.051666259765625,
  "Lon" : 9.686666488647461,
  "Locode" : "NOBVK",
  "Aliases" : null,
  "TimeZone" : {
    "UtcCurrentOffset" : 2,
    "RawOffset" : 1,
    "TimezoneId" : "Europe/Berlin",
    "DisplayName" : "(UTC+01:00) Amsterdam, Berlin, Bern, Rome, Stockholm, Vienna"
  }
}, {
  "Code" : "US0096",
  "CountryCode" : "US",
  "Name" : "Bridgeport",
  "LatGeodetic" : 41.1683349609375,
  "Lon" : -73.17500305175781,
  "Locode" : "USBDR",
  "Aliases" : null,
  "TimeZone" : {
    "UtcCurrentOffset" : -4,
    "RawOffset" : -5,
    "TimezoneId" : "America/New_York",
    "DisplayName" : "(UTC-05:00) Eastern Time (US & Canada)"
  }
}, {
  "Code" : "IT0021",
  "CountryCode" : "IT",
  "Name" : "Brindisi",
  "LatGeodetic" : 40.65833282470703,
  "Lon" : 17.983333587646484,
  "Locode" : "ITBDS",
  "Aliases" : null,
  "TimeZone" : {
    "UtcCurrentOffset" : 2,
    "RawOffset" : 1,
    "TimezoneId" : "Europe/Berlin",
    "DisplayName" : "(UTC+01:00) Amsterdam, Berlin, Bern, Rome, Stockholm, Vienna"
  }
}, {
  "Code" : "AU0038",
  "CountryCode" : "AU",
  "Name" : "Brisbane",
  "LatGeodetic" : -27.375,
  "Lon" : 153.1666717529297,
  "Locode" : "AUBNE",
  "Aliases" : [ "Fisherman Islands", "Pinkenba" ],
  "TimeZone" : {
    "UtcCurrentOffset" : 10,
    "RawOffset" : 10,
    "TimezoneId" : "Australia/Brisbane",
    "DisplayName" : "(UTC+10:00) Brisbane"
  }
}, {
  "Code" : "GB0063",
  "CountryCode" : "GB",
  "Name" : "Bristol, U.K.",
  "LatGeodetic" : 51.448333740234375,
  "Lon" : -2.620833396911621,
  "Locode" : "GBBRS",
  "Aliases" : null,
  "TimeZone" : {
    "UtcCurrentOffset" : 1,
    "RawOffset" : 0,
    "TimezoneId" : "Europe/London",
    "DisplayName" : "(UTC+00:00) Dublin, Edinburgh, Lisbon, London"
  }
}, {
  "Code" : "SE0022",
  "CountryCode" : "SE",
  "Name" : "Brofjorden",
  "LatGeodetic" : 58.356666564941406,
  "Lon" : 11.438333511352539,
  "Locode" : "SEBRO",
  "Aliases" : null,
  "TimeZone" : {
    "UtcCurrentOffset" : 2,
    "RawOffset" : 1,
    "TimezoneId" : "Europe/Berlin",
    "DisplayName" : "(UTC+01:00) Amsterdam, Berlin, Bern, Rome, Stockholm, Vienna"
  }
}, {
  "Code" : "AU0039",
  "CountryCode" : "AU",
  "Name" : "Broome",
  "LatGeodetic" : -18.0,
  "Lon" : 122.21666717529297,
  "Locode" : "AUBME",
  "Aliases" : null,
  "TimeZone" : {
    "UtcCurrentOffset" : 8,
    "RawOffset" : 8,
    "TimezoneId" : "Australia/Perth",
    "DisplayName" : "(UTC+08:00) Perth"
  }
}, {
  "Code" : "US0104",
  "CountryCode" : "US",
  "Name" : "Brownsville",
  "LatGeodetic" : 25.959999084472656,
  "Lon" : -97.37666320800781,
  "Locode" : "USBRO",
  "Aliases" : null,
  "TimeZone" : {
    "UtcCurrentOffset" : -5,
    "RawOffset" : -6,
    "TimezoneId" : "America/Chicago",
    "DisplayName" : "(UTC-06:00) Central Time (US & Canada)"
  }
}, {
  "Code" : "BE0004",
  "CountryCode" : "BE",
  "Name" : "Bruges",
  "LatGeodetic" : 51.231666564941406,
  "Lon" : 3.2216665744781494,
  "Locode" : "BEBGS",
  "Aliases" : null,
  "TimeZone" : {
    "UtcCurrentOffset" : 2,
    "RawOffset" : 1,
    "TimezoneId" : "Europe/Paris",
    "DisplayName" : "(UTC+01:00) Brussels, Copenhagen, Madrid, Paris"
  }
}, {
  "Code" : "DE0015",
  "CountryCode" : "DE",
  "Name" : "Brunsbuttel",
  "LatGeodetic" : 53.87968444824219,
  "Lon" : 9.140266418457031,
  "Locode" : "DEBRB",
  "Aliases" : [ "Elbeharbour" ],
  "TimeZone" : {
    "UtcCurrentOffset" : 2,
    "RawOffset" : 1,
    "TimezoneId" : "Europe/Berlin",
    "DisplayName" : "(UTC+01:00) Amsterdam, Berlin, Bern, Rome, Stockholm, Vienna"
  }
}, {
  "Code" : "US0105",
  "CountryCode" : "US",
  "Name" : "Brunswick",
  "LatGeodetic" : 31.149999618530273,
  "Lon" : -81.5,
  "Locode" : "US  BCK ",
  "Aliases" : null,
  "TimeZone" : {
    "UtcCurrentOffset" : -4,
    "RawOffset" : -5,
    "TimezoneId" : "America/New_York",
    "DisplayName" : "(UTC-05:00) Eastern Time (US & Canada)"
  }
}, {
  "Code" : "LR0001",
  "CountryCode" : "LR",
  "Name" : "Buchanan",
  "LatGeodetic" : 5.856624126434326,
  "Lon" : -10.051069259643555,
  "Locode" : "LRUCN",
  "Aliases" : null,
  "TimeZone" : {
    "UtcCurrentOffset" : 0,
    "RawOffset" : 0,
    "TimezoneId" : "Atlantic/Reykjavik",
    "DisplayName" : "(UTC+00:00) Monrovia, Reykjavik"
  }
}, {
  "Code" : "CO0007",
  "CountryCode" : "CO",
  "Name" : "Buenaventura",
  "LatGeodetic" : 3.8949999809265137,
  "Lon" : -77.07166290283203,
  "Locode" : "COBUN",
  "Aliases" : null,
  "TimeZone" : {
    "UtcCurrentOffset" : -5,
    "RawOffset" : -5,
    "TimezoneId" : "America/Bogota",
    "DisplayName" : "(UTC-05:00) Bogota, Lima, Quito, Rio Branco"
  }
}, {
  "Code" : "AR0012",
  "CountryCode" : "AR",
  "Name" : "Buenos Aires",
  "LatGeodetic" : -34.59166717529297,
  "Lon" : -58.36000061035156,
  "Locode" : "ARBUE",
  "Aliases" : [ "Puerto Dock Sud" ],
  "TimeZone" : {
    "UtcCurrentOffset" : -3,
    "RawOffset" : -3,
    "TimezoneId" : "America/Argentina/Buenos_Aires",
    "DisplayName" : "(UTC-03:00) City of Buenos Aires"
  }
}, {
  "Code" : "AN0004",
  "CountryCode" : "CW",
  "Name" : "Bullenbaai Terminal",
  "LatGeodetic" : 12.1850004196167,
  "Lon" : -69.02333068847656,
  "Locode" : "CWBUB",
  "Aliases" : [ "Bullen Bay" ],
  "TimeZone" : {
    "UtcCurrentOffset" : -4,
    "RawOffset" : -4,
    "TimezoneId" : "America/La_Paz",
    "DisplayName" : "(UTC-04:00) Georgetown, La Paz, Manaus, San Juan"
  }
}, {
  "Code" : "AU0043",
  "CountryCode" : "AU",
  "Name" : "Bunbury",
  "LatGeodetic" : -33.3216667175293,
  "Lon" : 115.66166687011719,
  "Locode" : "AUBUY",
  "Aliases" : null,
  "TimeZone" : {
    "UtcCurrentOffset" : 8,
    "RawOffset" : 8,
    "TimezoneId" : "Australia/Perth",
    "DisplayName" : "(UTC+08:00) Perth"
  }
}, {
  "Code" : "AU0044",
  "CountryCode" : "AU",
  "Name" : "Bundaberg",
  "LatGeodetic" : -24.768333435058594,
  "Lon" : 152.3800048828125,
  "Locode" : "AUBDB",
  "Aliases" : null,
  "TimeZone" : {
    "UtcCurrentOffset" : 10,
    "RawOffset" : 10,
    "TimezoneId" : "Australia/Brisbane",
    "DisplayName" : "(UTC+10:00) Brisbane"
  }
}, {
  "Code" : "AU0046",
  "CountryCode" : "AU",
  "Name" : "Burnie",
  "LatGeodetic" : -41.051666259765625,
  "Lon" : 145.9149932861328,
  "Locode" : "AUBWT",
  "Aliases" : [ "Emu Bay" ],
  "TimeZone" : {
    "UtcCurrentOffset" : 10,
    "RawOffset" : 10,
    "TimezoneId" : "Australia/Hobart",
    "DisplayName" : "(UTC+10:00) Hobart"
  }
}, {
  "Code" : "US0113",
  "CountryCode" : "US",
  "Name" : "Burnside",
  "LatGeodetic" : 30.1359167,
  "Lon" : -90.9317833,
  "Locode" : "USUDE",
  "Aliases" : null,
  "TimeZone" : {
    "UtcCurrentOffset" : -5,
    "RawOffset" : -6,
    "TimezoneId" : "America/Chicago",
    "DisplayName" : "(UTC-06:00) Central Time (US & Canada)"
  }
}, {
  "Code" : "KR0002",
  "CountryCode" : "KR",
  "Name" : "Busan",
  "LatGeodetic" : 35.108333587646484,
  "Lon" : 129.05833435058594,
  "Locode" : "KRPUS",
  "Aliases" : [ "Gamcheon", "Pusan" ],
  "TimeZone" : {
    "UtcCurrentOffset" : 9,
    "RawOffset" : 9,
    "TimezoneId" : "Asia/Seoul",
    "DisplayName" : "(UTC+09:00) Seoul"
  }
}, {
  "Code" : "IR0015",
  "CountryCode" : "IR",
  "Name" : "Bushire",
  "LatGeodetic" : 28.9950008392334,
  "Lon" : 50.834999084472656,
  "Locode" : "IRBUZ",
  "Aliases" : [ "Bushehr" ],
  "TimeZone" : {
    "UtcCurrentOffset" : 4,
    "RawOffset" : 3,
    "TimezoneId" : "Asia/Tehran",
    "DisplayName" : "(UTC+03:30) Tehran"
  }
}, {
  "Code" : "DE0019",
  "CountryCode" : "DE",
  "Name" : "Butzfleth",
  "LatGeodetic" : 53.65381622314453,
  "Lon" : 9.51615047454834,
  "Locode" : "DEBUZ",
  "Aliases" : [ "Elbehafen" ],
  "TimeZone" : {
    "UtcCurrentOffset" : 2,
    "RawOffset" : 1,
    "TimezoneId" : "Europe/Berlin",
    "DisplayName" : "(UTC+01:00) Amsterdam, Berlin, Bern, Rome, Stockholm, Vienna"
  }
}, {
  "Code" : "BR0030",
  "CountryCode" : "BR",
  "Name" : "Cabedelo",
  "LatGeodetic" : -6.9716668128967285,
  "Lon" : -34.84116744995117,
  "Locode" : "BRCDO",
  "Aliases" : null,
  "TimeZone" : {
    "UtcCurrentOffset" : -3,
    "RawOffset" : -3,
    "TimezoneId" : "America/Cayenne",
    "DisplayName" : "(UTC-03:00) Cayenne, Fortaleza"
  }
}, {
  "Code" : "AO0006",
  "CountryCode" : "AO",
  "Name" : "Cabinda",
  "LatGeodetic" : -5.551666736602783,
  "Lon" : 12.204999923706055,
  "Locode" : "AOCAB",
  "Aliases" : null,
  "TimeZone" : {
    "UtcCurrentOffset" : 1,
    "RawOffset" : 1,
    "TimezoneId" : "Africa/Lagos",
    "DisplayName" : "(UTC+01:00) West Central Africa"
  }
}, {
  "Code" : "CL0006",
  "CountryCode" : "CL",
  "Name" : "Cabo Negro",
  "LatGeodetic" : -52.92636489868164,
  "Lon" : -70.8012466430664,
  "Locode" : "CLCNX",
  "Aliases" : null,
  "TimeZone" : {
    "UtcCurrentOffset" : -3,
    "RawOffset" : -3,
    "TimezoneId" : "America/Punta_Arenas",
    "DisplayName" : "(UTC-03:00) Punta Arenas"
  }
}, {
  "Code" : "DO0005",
  "CountryCode" : "DO",
  "Name" : "Cabo Rojo",
  "LatGeodetic" : 17.92705535888672,
  "Lon" : -71.67061614990234,
  "Locode" : "DOCBJ",
  "Aliases" : null,
  "TimeZone" : {
    "UtcCurrentOffset" : -4,
    "RawOffset" : -4,
    "TimezoneId" : "America/La_Paz",
    "DisplayName" : "(UTC-04:00) Georgetown, La Paz, Manaus, San Juan"
  }
}, {
  "Code" : "ES0028",
  "CountryCode" : "ES",
  "Name" : "Cadiz Bay",
  "LatGeodetic" : 36.5433349609375,
  "Lon" : -6.275000095367432,
  "Locode" : "ESCAD",
  "Aliases" : null,
  "TimeZone" : {
    "UtcCurrentOffset" : 2,
    "RawOffset" : 1,
    "TimezoneId" : "Europe/Paris",
    "DisplayName" : "(UTC+01:00) Brussels, Copenhagen, Madrid, Paris"
  }
}, {
  "Code" : "FR0034",
  "CountryCode" : "FR",
  "Name" : "Caen",
  "LatGeodetic" : 49.184165954589844,
  "Lon" : -0.33500000834465027,
  "Locode" : "FRCFR",
  "Aliases" : null,
  "TimeZone" : {
    "UtcCurrentOffset" : 2,
    "RawOffset" : 1,
    "TimezoneId" : "Europe/Paris",
    "DisplayName" : "(UTC+01:00) Brussels, Copenhagen, Madrid, Paris"
  }
}, {
  "Code" : "PH0034",
  "CountryCode" : "PH",
  "Name" : "Cagayan de Oro",
  "LatGeodetic" : 8.501667022705078,
  "Lon" : 124.66416931152344,
  "Locode" : "PHCGY",
  "Aliases" : [ "Macabalan" ],
  "TimeZone" : {
    "UtcCurrentOffset" : 8,
    "RawOffset" : 8,
    "TimezoneId" : "Asia/Singapore",
    "DisplayName" : "(UTC+08:00) Kuala Lumpur, Singapore"
  }
}, {
  "Code" : "IT0022",
  "CountryCode" : "IT",
  "Name" : "Cagliari",
  "LatGeodetic" : 39.2066723,
  "Lon" : 9.1087486,
  "Locode" : "ITCAG",
  "Aliases" : [ "Assemini", "La Maddalena (Cagliari)" ],
  "TimeZone" : {
    "UtcCurrentOffset" : 2,
    "RawOffset" : 1,
    "TimezoneId" : "Europe/Berlin",
    "DisplayName" : "(UTC+01:00) Amsterdam, Berlin, Bern, Rome, Stockholm, Vienna"
  }
}, {
  "Code" : "AU0049",
  "CountryCode" : "AU",
  "Name" : "Cairns",
  "LatGeodetic" : -16.926666259765625,
  "Lon" : 145.7816619873047,
  "Locode" : "AUCNS",
  "Aliases" : null,
  "TimeZone" : {
    "UtcCurrentOffset" : 10,
    "RawOffset" : 10,
    "TimezoneId" : "Australia/Brisbane",
    "DisplayName" : "(UTC+10:00) Brisbane"
  }
}, {
  "Code" : "NG0016",
  "CountryCode" : "NG",
  "Name" : "Calabar",
  "LatGeodetic" : 4.973333358764648,
  "Lon" : 8.322500228881836,
  "Locode" : "NGCBQ",
  "Aliases" : null,
  "TimeZone" : {
    "UtcCurrentOffset" : 1,
    "RawOffset" : 1,
    "TimezoneId" : "Africa/Lagos",
    "DisplayName" : "(UTC+01:00) West Central Africa"
  }
}, {
  "Code" : "FR0035",
  "CountryCode" : "FR",
  "Name" : "Calais, France",
  "LatGeodetic" : 50.970001220703125,
  "Lon" : 1.8449997901916504,
  "Locode" : "FRCQF",
  "Aliases" : null,
  "TimeZone" : {
    "UtcCurrentOffset" : 2,
    "RawOffset" : 1,
    "TimezoneId" : "Europe/Paris",
    "DisplayName" : "(UTC+01:00) Brussels, Copenhagen, Madrid, Paris"
  }
}, {
  "Code" : "IN0023",
  "CountryCode" : "IN",
  "Name" : "Calcutta",
  "LatGeodetic" : 22.553091049194336,
  "Lon" : 88.28947448730469,
  "Locode" : "INCCU",
  "Aliases" : null,
  "TimeZone" : {
    "UtcCurrentOffset" : 5,
    "RawOffset" : 5,
    "TimezoneId" : "Asia/Kolkata",
    "DisplayName" : "(UTC+05:30) Chennai, Kolkata, Mumbai, New Delhi"
  }
}, {
  "Code" : "CL0007",
  "CountryCode" : "CL",
  "Name" : "Caldera, Chile",
  "LatGeodetic" : -27.051366666666667,
  "Lon" : -70.84035,
  "Locode" : "CLCLD",
  "Aliases" : null,
  "TimeZone" : {
    "UtcCurrentOffset" : -4,
    "RawOffset" : -4,
    "TimezoneId" : "America/Santiago",
    "DisplayName" : "(UTC-04:00) Santiago"
  }
}, {
  "Code" : "CR0001",
  "CountryCode" : "CR",
  "Name" : "Caldera, Costa Rica",
  "LatGeodetic" : 9.914999961853027,
  "Lon" : -84.72166442871094,
  "Locode" : "CRCAL",
  "Aliases" : null,
  "TimeZone" : {
    "UtcCurrentOffset" : -6,
    "RawOffset" : -6,
    "TimezoneId" : "America/Guatemala",
    "DisplayName" : "(UTC-06:00) Central America"
  }
}, {
  "Code" : "PE0005",
  "CountryCode" : "PE",
  "Name" : "Callao",
  "LatGeodetic" : -12.048333168029785,
  "Lon" : -77.15166473388672,
  "Locode" : "PECLL",
  "Aliases" : null,
  "TimeZone" : {
    "UtcCurrentOffset" : -5,
    "RawOffset" : -5,
    "TimezoneId" : "America/Bogota",
    "DisplayName" : "(UTC-05:00) Bogota, Lima, Quito, Rio Branco"
  }
}, {
  "Code" : "ID0064",
  "CountryCode" : "ID",
  "Name" : "Camar Marine Terminal",
  "LatGeodetic" : -6.2833333015441895,
  "Lon" : 113.0,
  "Locode" : "XZCMT",
  "Aliases" : null,
  "TimeZone" : {
    "UtcCurrentOffset" : 7,
    "RawOffset" : 7,
    "TimezoneId" : "Asia/Bangkok",
    "DisplayName" : "(UTC+07:00) Bangkok, Hanoi, Jakarta"
  }
}, {
  "Code" : "AR0019",
  "CountryCode" : "AR",
  "Name" : "Campana",
  "LatGeodetic" : -34.1514833,
  "Lon" : -58.9601333,
  "Locode" : "ARCMP",
  "Aliases" : null,
  "TimeZone" : {
    "UtcCurrentOffset" : -3,
    "RawOffset" : -3,
    "TimezoneId" : "America/Argentina/Buenos_Aires",
    "DisplayName" : "(UTC-03:00) City of Buenos Aires"
  }
}, {
  "Code" : "GB0085",
  "CountryCode" : "GB",
  "Name" : "Campbeltown",
  "LatGeodetic" : 55.42499923706055,
  "Lon" : -5.5966668128967285,
  "Locode" : "GBCBT",
  "Aliases" : null,
  "TimeZone" : {
    "UtcCurrentOffset" : 1,
    "RawOffset" : 0,
    "TimezoneId" : "Europe/London",
    "DisplayName" : "(UTC+00:00) Dublin, Edinburgh, Lisbon, London"
  }
}, {
  "Code" : "TR0031",
  "CountryCode" : "TR",
  "Name" : "Canakkale",
  "LatGeodetic" : 40.15250015258789,
  "Lon" : 26.399999618530273,
  "Locode" : "TRCKZ",
  "Aliases" : null,
  "TimeZone" : {
    "UtcCurrentOffset" : 3,
    "RawOffset" : 3,
    "TimezoneId" : "Europe/Istanbul",
    "DisplayName" : "(UTC+03:00) Istanbul"
  }
}, {
  "Code" : "ZA0006",
  "CountryCode" : "ZA",
  "Name" : "Cape Town",
  "LatGeodetic" : -33.90999984741211,
  "Lon" : 18.433332443237305,
  "Locode" : "ZACPT",
  "Aliases" : null,
  "TimeZone" : {
    "UtcCurrentOffset" : 2,
    "RawOffset" : 2,
    "TimezoneId" : "Africa/Johannesburg",
    "DisplayName" : "(UTC+02:00) Harare, Pretoria"
  }
}, {
  "Code" : "ES0040",
  "CountryCode" : "ES",
  "Name" : "Carboneras",
  "LatGeodetic" : 36.974998474121094,
  "Lon" : -1.8975000381469727,
  "Locode" : "ESCRS",
  "Aliases" : null,
  "TimeZone" : {
    "UtcCurrentOffset" : 2,
    "RawOffset" : 1,
    "TimezoneId" : "Europe/Paris",
    "DisplayName" : "(UTC+01:00) Brussels, Copenhagen, Madrid, Paris"
  }
}, {
  "Code" : "GB0087",
  "CountryCode" : "GB",
  "Name" : "Cardiff",
  "LatGeodetic" : 51.45000076293945,
  "Lon" : -3.1616663932800293,
  "Locode" : "GBCDF",
  "Aliases" : [ "Penarth" ],
  "TimeZone" : {
    "UtcCurrentOffset" : 1,
    "RawOffset" : 0,
    "TimezoneId" : "Europe/London",
    "DisplayName" : "(UTC+00:00) Dublin, Edinburgh, Lisbon, London"
  }
}, {
  "Code" : "VE0019",
  "CountryCode" : "VE",
  "Name" : "Caripito",
  "LatGeodetic" : 10.154999732971191,
  "Lon" : -63.03333282470703,
  "Locode" : "VECAR",
  "Aliases" : [ "Punta Gorda, Venezuela", "Rio San Juan" ],
  "TimeZone" : {
    "UtcCurrentOffset" : -4,
    "RawOffset" : -4,
    "TimezoneId" : "America/Caracas",
    "DisplayName" : "(UTC-04:00) Caracas"
  }
}, {
  "Code" : "CO0008",
  "CountryCode" : "CO",
  "Name" : "Cartagena, Colombia",
  "LatGeodetic" : 10.401666641235352,
  "Lon" : -75.53500366210938,
  "Locode" : "COCTG",
  "Aliases" : [ "Muelles El Bosque" ],
  "TimeZone" : {
    "UtcCurrentOffset" : -5,
    "RawOffset" : -5,
    "TimezoneId" : "America/Bogota",
    "DisplayName" : "(UTC-05:00) Bogota, Lima, Quito, Rio Branco"
  }
}, {
  "Code" : "ES0042",
  "CountryCode" : "ES",
  "Name" : "Cartagena, Spain",
  "LatGeodetic" : 37.573333740234375,
  "Lon" : -0.9833333492279053,
  "Locode" : "ESCAR",
  "Aliases" : null,
  "TimeZone" : {
    "UtcCurrentOffset" : 2,
    "RawOffset" : 1,
    "TimezoneId" : "Europe/Paris",
    "DisplayName" : "(UTC+01:00) Brussels, Copenhagen, Madrid, Paris"
  }
}, {
  "Code" : "MA0014",
  "CountryCode" : "MA",
  "Name" : "Casablanca",
  "LatGeodetic" : 33.61333465576172,
  "Lon" : -7.5966668128967285,
  "Locode" : "MACAS",
  "Aliases" : null,
  "TimeZone" : {
    "UtcCurrentOffset" : 1,
    "RawOffset" : 0,
    "TimezoneId" : "Africa/Casablanca",
    "DisplayName" : "(UTC+01:00) Casablanca"
  }
}, {
  "Code" : "ES0043",
  "CountryCode" : "ES",
  "Name" : "Castellon de la Plana - Oil Terminal",
  "LatGeodetic" : 39.94499969482422,
  "Lon" : 0.02666666731238365,
  "Locode" : "ESCAS",
  "Aliases" : null,
  "TimeZone" : {
    "UtcCurrentOffset" : 2,
    "RawOffset" : 1,
    "TimezoneId" : "Europe/Paris",
    "DisplayName" : "(UTC+01:00) Brussels, Copenhagen, Madrid, Paris"
  }
}, {
  "Code" : "LC0001",
  "CountryCode" : "LC",
  "Name" : "Castries",
  "LatGeodetic" : 14.011666297912598,
  "Lon" : -60.994998931884766,
  "Locode" : "LCCAS",
  "Aliases" : [ "Coconut Point", "Pointe Seraphine" ],
  "TimeZone" : {
    "UtcCurrentOffset" : -4,
    "RawOffset" : -4,
    "TimezoneId" : "America/La_Paz",
    "DisplayName" : "(UTC-04:00) Georgetown, La Paz, Manaus, San Juan"
  }
}, {
  "Code" : "IT0041",
  "CountryCode" : "IT",
  "Name" : "Catania",
  "LatGeodetic" : 37.49333190917969,
  "Lon" : 15.095000267028809,
  "Locode" : "ITCTA",
  "Aliases" : null,
  "TimeZone" : {
    "UtcCurrentOffset" : 2,
    "RawOffset" : 1,
    "TimezoneId" : "Europe/Berlin",
    "DisplayName" : "(UTC+01:00) Amsterdam, Berlin, Bern, Rome, Stockholm, Vienna"
  }
}, {
  "Code" : "MX0014",
  "CountryCode" : "MX",
  "Name" : "Cayo Arcas",
  "LatGeodetic" : 20.13083267211914,
  "Lon" : -91.99500274658203,
  "Locode" : "MXCAT",
  "Aliases" : null,
  "TimeZone" : {
    "UtcCurrentOffset" : -5,
    "RawOffset" : -6,
    "TimezoneId" : "America/Mexico_City",
    "DisplayName" : "(UTC-06:00) Guadalajara, Mexico City, Monterrey"
  }
}, {
  "Code" : "PH0046",
  "CountryCode" : "PH",
  "Name" : "Cebu",
  "LatGeodetic" : 10.286666870117188,
  "Lon" : 123.9000015258789,
  "Locode" : "PHCEB",
  "Aliases" : null,
  "TimeZone" : {
    "UtcCurrentOffset" : 8,
    "RawOffset" : 8,
    "TimezoneId" : "Asia/Singapore",
    "DisplayName" : "(UTC+08:00) Kuala Lumpur, Singapore"
  }
}, {
  "Code" : "ES0048",
  "CountryCode" : "ES",
  "Name" : "Ceuta",
  "LatGeodetic" : 35.893333435058594,
  "Lon" : -5.309999942779541,
  "Locode" : "ESCEU",
  "Aliases" : null,
  "TimeZone" : {
    "UtcCurrentOffset" : 1,
    "RawOffset" : 0,
    "TimezoneId" : "Africa/Casablanca",
    "DisplayName" : "(UTC+01:00) Casablanca"
  }
}, {
  "Code" : "TR0037",
  "CountryCode" : "TR",
  "Name" : "Ceyhan Terminal",
  "LatGeodetic" : 36.86000061035156,
  "Lon" : 35.94333267211914,
  "Locode" : "TRCEY",
  "Aliases" : [ "Botas", "Botas (Ceyhan) Oil Terminal" ],
  "TimeZone" : {
    "UtcCurrentOffset" : 3,
    "RawOffset" : 3,
    "TimezoneId" : "Europe/Istanbul",
    "DisplayName" : "(UTC+03:00) Istanbul"
  }
}, {
  "Code" : "GR0053",
  "CountryCode" : "GR",
  "Name" : "Chalkis",
  "LatGeodetic" : 38.46666717529297,
  "Lon" : 23.59083366394043,
  "Locode" : "GRCLK",
  "Aliases" : [ "Halkis" ],
  "TimeZone" : {
    "UtcCurrentOffset" : 3,
    "RawOffset" : 2,
    "TimezoneId" : "Europe/Bucharest",
    "DisplayName" : "(UTC+02:00) Athens, Bucharest"
  }
}, {
  "Code" : "AU0072",
  "CountryCode" : "AU",
  "Name" : "Challis Venture",
  "LatGeodetic" : -12.130979537963867,
  "Lon" : 125.01131439208984,
  "Locode" : "AUCHV",
  "Aliases" : null,
  "TimeZone" : {
    "UtcCurrentOffset" : 8,
    "RawOffset" : 8,
    "TimezoneId" : "Asia/Singapore",
    "DisplayName" : "(UTC+08:00) Kuala Lumpur, Singapore"
  }
}, {
  "Code" : "US0153",
  "CountryCode" : "US",
  "Name" : "Chalmette",
  "LatGeodetic" : 29.93299674987793,
  "Lon" : -89.98898315429688,
  "Locode" : "USCLQ",
  "Aliases" : null,
  "TimeZone" : {
    "UtcCurrentOffset" : -5,
    "RawOffset" : -6,
    "TimezoneId" : "America/Chicago",
    "DisplayName" : "(UTC-06:00) Central Time (US & Canada)"
  }
}, {
  "Code" : "CL0016",
  "CountryCode" : "CL",
  "Name" : "Chanaral",
  "LatGeodetic" : -26.351667404174805,
  "Lon" : -70.65499877929688,
  "Locode" : "CLCNR",
  "Aliases" : [ "Barquito" ],
  "TimeZone" : {
    "UtcCurrentOffset" : -4,
    "RawOffset" : -4,
    "TimezoneId" : "America/Santiago",
    "DisplayName" : "(UTC-04:00) Santiago"
  }
}, {
  "Code" : "CA0095",
  "CountryCode" : "CA",
  "Name" : "Chandler",
  "LatGeodetic" : 48.336666107177734,
  "Lon" : -64.66166687011719,
  "Locode" : "CACHR",
  "Aliases" : null,
  "TimeZone" : {
    "UtcCurrentOffset" : -4,
    "RawOffset" : -5,
    "TimezoneId" : "America/New_York",
    "DisplayName" : "(UTC-05:00) Eastern Time (US & Canada)"
  }
}, {
  "Code" : "US0155",
  "CountryCode" : "US",
  "Name" : "Charleston",
  "LatGeodetic" : 32.788333892822266,
  "Lon" : -79.91999816894531,
  "Locode" : "USCHS",
  "Aliases" : null,
  "TimeZone" : {
    "UtcCurrentOffset" : -4,
    "RawOffset" : -5,
    "TimezoneId" : "America/New_York",
    "DisplayName" : "(UTC-05:00) Eastern Time (US & Canada)"
  }
}, {
  "Code" : "CA0096",
  "CountryCode" : "CA",
  "Name" : "Charlottetown",
  "LatGeodetic" : 46.22833251953125,
  "Lon" : -63.11833190917969,
  "Locode" : "CACHA",
  "Aliases" : null,
  "TimeZone" : {
    "UtcCurrentOffset" : -3,
    "RawOffset" : -4,
    "TimezoneId" : "America/Halifax",
    "DisplayName" : "(UTC-04:00) Atlantic Time (Canada)"
  }
}, {
  "Code" : "FR0055",
  "CountryCode" : "FR",
  "Name" : "Cherbourg",
  "LatGeodetic" : 49.6533317565918,
  "Lon" : -1.614999771118164,
  "Locode" : "FRCER",
  "Aliases" : null,
  "TimeZone" : {
    "UtcCurrentOffset" : 2,
    "RawOffset" : 1,
    "TimezoneId" : "Europe/Paris",
    "DisplayName" : "(UTC+01:00) Brussels, Copenhagen, Madrid, Paris"
  }
}, {
  "Code" : "US0164",
  "CountryCode" : "US",
  "Name" : "Cherry Point",
  "LatGeodetic" : 48.86000061035156,
  "Lon" : -122.76000213623047,
  "Locode" : "USCPO",
  "Aliases" : null,
  "TimeZone" : {
    "UtcCurrentOffset" : -7,
    "RawOffset" : -8,
    "TimezoneId" : "America/Los_Angeles",
    "DisplayName" : "(UTC-08:00) Pacific Time (US & Canada)"
  }
}, {
  "Code" : "JP0018",
  "CountryCode" : "JP",
  "Name" : "Chiba",
  "LatGeodetic" : 35.59166717529297,
  "Lon" : 140.0850067138672,
  "Locode" : "JPCHB",
  "Aliases" : [ "Funabashi" ],
  "TimeZone" : {
    "UtcCurrentOffset" : 9,
    "RawOffset" : 9,
    "TimezoneId" : "Asia/Tokyo",
    "DisplayName" : "(UTC+09:00) Osaka, Sapporo, Tokyo"
  }
}, {
  "Code" : "CA0103",
  "CountryCode" : "CA",
  "Name" : "Chicoutimi",
  "LatGeodetic" : 48.431671142578125,
  "Lon" : -71.05988311767578,
  "Locode" : "CACHI",
  "Aliases" : [ "Saquenay" ],
  "TimeZone" : {
    "UtcCurrentOffset" : -4,
    "RawOffset" : -5,
    "TimezoneId" : "America/New_York",
    "DisplayName" : "(UTC-05:00) Eastern Time (US & Canada)"
  }
}, {
  "Code" : "PE0008",
  "CountryCode" : "PE",
  "Name" : "Chimbote",
  "LatGeodetic" : -9.079999923706055,
  "Lon" : -78.61833190917969,
  "Locode" : "PECHM",
  "Aliases" : null,
  "TimeZone" : {
    "UtcCurrentOffset" : -5,
    "RawOffset" : -5,
    "TimezoneId" : "America/Bogota",
    "DisplayName" : "(UTC-05:00) Bogota, Lima, Quito, Rio Branco"
  }
}, {
  "Code" : "CN0023",
  "CountryCode" : "CN",
  "Name" : "Chinwangtao Oil Terminal",
  "LatGeodetic" : 39.91999816894531,
  "Lon" : 119.65249633789062,
  "Locode" : "CNSHP",
  "Aliases" : null,
  "TimeZone" : {
    "UtcCurrentOffset" : 8,
    "RawOffset" : 8,
    "TimezoneId" : "Asia/Shanghai",
    "DisplayName" : "(UTC+08:00) Beijing, Chongqing, Hong Kong, Urumqi"
  }
}, {
  "Code" : "IT0045",
  "CountryCode" : "IT",
  "Name" : "Chioggia",
  "LatGeodetic" : 45.231666564941406,
  "Lon" : 12.289166450500488,
  "Locode" : "ITCHI",
  "Aliases" : null,
  "TimeZone" : {
    "UtcCurrentOffset" : 2,
    "RawOffset" : 1,
    "TimezoneId" : "Europe/Berlin",
    "DisplayName" : "(UTC+01:00) Amsterdam, Berlin, Bern, Rome, Stockholm, Vienna"
  }
}, {
  "Code" : "PA0010",
  "CountryCode" : "PA",
  "Name" : "Chiriqui Grande",
  "LatGeodetic" : 8.966666221618652,
  "Lon" : -82.09833526611328,
  "Locode" : "PACHG",
  "Aliases" : null,
  "TimeZone" : {
    "UtcCurrentOffset" : -5,
    "RawOffset" : -5,
    "TimezoneId" : "America/Bogota",
    "DisplayName" : "(UTC-05:00) Bogota, Lima, Quito, Rio Branco"
  }
}, {
  "Code" : "BD0003",
  "CountryCode" : "BD",
  "Name" : "Chittagong",
  "LatGeodetic" : 22.308332443237305,
  "Lon" : 91.80500030517578,
  "Locode" : "BDCGP",
  "Aliases" : null,
  "TimeZone" : {
    "UtcCurrentOffset" : 6,
    "RawOffset" : 6,
    "TimezoneId" : "Asia/Dhaka",
    "DisplayName" : "(UTC+06:00) Dhaka"
  }
}, {
  "Code" : "CN0025",
  "CountryCode" : "CN",
  "Name" : "Chiwan",
  "LatGeodetic" : 22.461666107177734,
  "Lon" : 113.88166809082031,
  "Locode" : "CNCWN",
  "Aliases" : null,
  "TimeZone" : {
    "UtcCurrentOffset" : 8,
    "RawOffset" : 8,
    "TimezoneId" : "Asia/Shanghai",
    "DisplayName" : "(UTC+08:00) Beijing, Chongqing, Hong Kong, Urumqi"
  }
}, {
  "Code" : "KP0004",
  "CountryCode" : "KP",
  "Name" : "Chungjin",
  "LatGeodetic" : 41.77843333333333,
  "Lon" : 129.82356666666666,
  "Locode" : "",
  "Aliases" : [ "Chongjin" ],
  "TimeZone" : {
    "UtcCurrentOffset" : 9,
    "RawOffset" : 9,
    "TimezoneId" : "Asia/Pyongyang",
    "DisplayName" : "(UTC+09:00) Pyongyang"
  }
}, {
  "Code" : "CA0105",
  "CountryCode" : "CA",
  "Name" : "Churchill",
  "LatGeodetic" : 58.77724838256836,
  "Lon" : -94.19999694824219,
  "Locode" : "CACHV",
  "Aliases" : null,
  "TimeZone" : {
    "UtcCurrentOffset" : -5,
    "RawOffset" : -6,
    "TimezoneId" : "America/Chicago",
    "DisplayName" : "(UTC-06:00) Central Time (US & Canada)"
  }
}, {
  "Code" : "ID0067",
  "CountryCode" : "ID",
  "Name" : "Cigading",
  "LatGeodetic" : -6.010000228881836,
  "Lon" : 105.95333099365234,
  "Locode" : "IDCIG",
  "Aliases" : [ "Banten", "Bojonegara" ],
  "TimeZone" : {
    "UtcCurrentOffset" : 7,
    "RawOffset" : 7,
    "TimezoneId" : "Asia/Bangkok",
    "DisplayName" : "(UTC+07:00) Bangkok, Hanoi, Jakarta"
  }
}, {
  "Code" : "ID0069",
  "CountryCode" : "ID",
  "Name" : "Cinta Terminal",
  "LatGeodetic" : -5.448333263397217,
  "Lon" : 106.18499755859375,
  "Locode" : "IDCIN",
  "Aliases" : null,
  "TimeZone" : {
    "UtcCurrentOffset" : 7,
    "RawOffset" : 7,
    "TimezoneId" : "Asia/Bangkok",
    "DisplayName" : "(UTC+07:00) Bangkok, Hanoi, Jakarta"
  }
}, {
  "Code" : "IT0047",
  "CountryCode" : "IT",
  "Name" : "Civitavecchia",
  "LatGeodetic" : 42.0966682434082,
  "Lon" : 11.779999732971191,
  "Locode" : "ITCVV",
  "Aliases" : null,
  "TimeZone" : {
    "UtcCurrentOffset" : 2,
    "RawOffset" : 1,
    "TimezoneId" : "Europe/Berlin",
    "DisplayName" : "(UTC+01:00) Amsterdam, Berlin, Bern, Rome, Stockholm, Vienna"
  }
}, {
  "Code" : "US0176",
  "CountryCode" : "US",
  "Name" : "Cleveland",
  "LatGeodetic" : 41.516666412353516,
  "Lon" : -81.71666717529297,
  "Locode" : "USCLE",
  "Aliases" : null,
  "TimeZone" : {
    "UtcCurrentOffset" : -4,
    "RawOffset" : -5,
    "TimezoneId" : "America/New_York",
    "DisplayName" : "(UTC-05:00) Eastern Time (US & Canada)"
  }
}, {
  "Code" : "MX0021",
  "CountryCode" : "MX",
  "Name" : "Coatzacoalcos",
  "LatGeodetic" : 18.128334045410156,
  "Lon" : -94.4000015258789,
  "Locode" : "MXCOA",
  "Aliases" : [ "Pajaritos", "Puerto Mexico" ],
  "TimeZone" : {
    "UtcCurrentOffset" : -5,
    "RawOffset" : -6,
    "TimezoneId" : "America/Mexico_City",
    "DisplayName" : "(UTC-06:00) Guadalajara, Mexico City, Monterrey"
  }
}, {
  "Code" : "IE0021",
  "CountryCode" : "IE",
  "Name" : "Cobh",
  "LatGeodetic" : 51.846961975097656,
  "Lon" : -8.299799919128418,
  "Locode" : "IECOB",
  "Aliases" : null,
  "TimeZone" : {
    "UtcCurrentOffset" : 1,
    "RawOffset" : 0,
    "TimezoneId" : "Europe/London",
    "DisplayName" : "(UTC+00:00) Dublin, Edinburgh, Lisbon, London"
  }
}, {
  "Code" : "IN0033",
  "CountryCode" : "IN",
  "Name" : "Cochin",
  "LatGeodetic" : 9.970170021057129,
  "Lon" : 76.26937866210938,
  "Locode" : "INCOK",
  "Aliases" : null,
  "TimeZone" : {
    "UtcCurrentOffset" : 5,
    "RawOffset" : 5,
    "TimezoneId" : "Asia/Kolkata",
    "DisplayName" : "(UTC+05:30) Chennai, Kolkata, Mumbai, New Delhi"
  }
}, {
  "Code" : "CM0003",
  "CountryCode" : "CM",
  "Name" : "Cape Limboh",
  "LatGeodetic" : 3.9766666889190674,
  "Lon" : 9.125,
  "Locode" : "CMLIT",
  "Aliases" : [ "Cap Limboh", "Pointe Limboh (Cap Limboh Terminal)" ],
  "TimeZone" : {
    "UtcCurrentOffset" : 1,
    "RawOffset" : 1,
    "TimezoneId" : "Africa/Lagos",
    "DisplayName" : "(UTC+01:00) West Central Africa"
  }
}, {
  "Code" : "LK0003",
  "CountryCode" : "LK",
  "Name" : "Colombo",
  "LatGeodetic" : 6.949999809265137,
  "Lon" : 79.8499984741211,
  "Locode" : "LKCMB",
  "Aliases" : null,
  "TimeZone" : {
    "UtcCurrentOffset" : 5,
    "RawOffset" : 5,
    "TimezoneId" : "Asia/Colombo",
    "DisplayName" : "(UTC+05:30) Sri Jayawardenepura"
  }
}, {
  "Code" : "CA0115",
  "CountryCode" : "CA",
  "Name" : "Come-By-Chance",
  "LatGeodetic" : 47.79999923706055,
  "Lon" : -54.02166748046875,
  "Locode" : "CACBC",
  "Aliases" : null,
  "TimeZone" : {
    "UtcCurrentOffset" : -2,
    "RawOffset" : -3,
    "TimezoneId" : "America/St_Johns",
    "DisplayName" : "(UTC-03:30) Newfoundland"
  }
}, {
  "Code" : "AR0026",
  "CountryCode" : "AR",
  "Name" : "Comodoro Rivadavia",
  "LatGeodetic" : -45.85333251953125,
  "Lon" : -67.44833374023438,
  "Locode" : "ARCRD",
  "Aliases" : [ "Caleta Olivares" ],
  "TimeZone" : {
    "UtcCurrentOffset" : -3,
    "RawOffset" : -3,
    "TimezoneId" : "America/Argentina/Buenos_Aires",
    "DisplayName" : "(UTC-03:00) City of Buenos Aires"
  }
}, {
  "Code" : "GN0004",
  "CountryCode" : "GN",
  "Name" : "Conakry",
  "LatGeodetic" : 9.515000343322754,
  "Lon" : -13.72166633605957,
  "Locode" : "GNCKY",
  "Aliases" : null,
  "TimeZone" : {
    "UtcCurrentOffset" : 0,
    "RawOffset" : 0,
    "TimezoneId" : "Atlantic/Reykjavik",
    "DisplayName" : "(UTC+00:00) Monrovia, Reykjavik"
  }
}, {
  "Code" : "AR0027",
  "CountryCode" : "AR",
  "Name" : "Concepcion del Uruguay",
  "LatGeodetic" : -32.486351013183594,
  "Lon" : -58.199981689453125,
  "Locode" : "ARCOU",
  "Aliases" : null,
  "TimeZone" : {
    "UtcCurrentOffset" : -3,
    "RawOffset" : -3,
    "TimezoneId" : "America/Argentina/Buenos_Aires",
    "DisplayName" : "(UTC-03:00) City of Buenos Aires"
  }
}, {
  "Code" : "PE0010",
  "CountryCode" : "PE",
  "Name" : "Conchan Refinery - Conchan",
  "LatGeodetic" : -12.268333435058594,
  "Lon" : -76.9383316040039,
  "Locode" : "",
  "Aliases" : null,
  "TimeZone" : {
    "UtcCurrentOffset" : -5,
    "RawOffset" : -5,
    "TimezoneId" : "America/Bogota",
    "DisplayName" : "(UTC-05:00) Bogota, Lima, Quito, Rio Branco"
  }
}, {
  "Code" : "RO0007",
  "CountryCode" : "RO",
  "Name" : "Constantza",
  "LatGeodetic" : 44.11833190917969,
  "Lon" : 28.68666648864746,
  "Locode" : "ROCND",
  "Aliases" : null,
  "TimeZone" : {
    "UtcCurrentOffset" : 3,
    "RawOffset" : 2,
    "TimezoneId" : "Europe/Bucharest",
    "DisplayName" : "(UTC+02:00) Athens, Bucharest"
  }
}, {
  "Code" : "CA0119",
  "CountryCode" : "CA",
  "Name" : "Contrecoeur",
  "LatGeodetic" : 45.8316650390625,
  "Lon" : -73.28500366210938,
  "Locode" : "CACOC",
  "Aliases" : null,
  "TimeZone" : {
    "UtcCurrentOffset" : -4,
    "RawOffset" : -5,
    "TimezoneId" : "America/New_York",
    "DisplayName" : "(UTC-05:00) Eastern Time (US & Canada)"
  }
}, {
  "Code" : "US0184",
  "CountryCode" : "US",
  "Name" : "Convent",
  "LatGeodetic" : 30.02105712890625,
  "Lon" : -90.83431243896484,
  "Locode" : "USCEN",
  "Aliases" : null,
  "TimeZone" : {
    "UtcCurrentOffset" : -5,
    "RawOffset" : -6,
    "TimezoneId" : "America/Chicago",
    "DisplayName" : "(UTC-06:00) Central Time (US & Canada)"
  }
}, {
  "Code" : "US0185",
  "CountryCode" : "US",
  "Name" : "Coos Bay",
  "LatGeodetic" : 43.37666702270508,
  "Lon" : -124.30000305175781,
  "Locode" : "USCOB",
  "Aliases" : [ "Empire, Oregon, U.S.A." ],
  "TimeZone" : {
    "UtcCurrentOffset" : -7,
    "RawOffset" : -8,
    "TimezoneId" : "America/Los_Angeles",
    "DisplayName" : "(UTC-08:00) Pacific Time (US & Canada)"
  }
}, {
  "Code" : "DK0021",
  "CountryCode" : "DK",
  "Name" : "Copenhagen",
  "LatGeodetic" : 55.7066650390625,
  "Lon" : 12.608333587646484,
  "Locode" : "DKCPH",
  "Aliases" : null,
  "TimeZone" : {
    "UtcCurrentOffset" : 2,
    "RawOffset" : 1,
    "TimezoneId" : "Europe/Paris",
    "DisplayName" : "(UTC+01:00) Brussels, Copenhagen, Madrid, Paris"
  }
}, {
  "Code" : "CL0020",
  "CountryCode" : "CL",
  "Name" : "Coquimbo",
  "LatGeodetic" : -29.948333740234375,
  "Lon" : -71.3316650390625,
  "Locode" : "CLCQQ",
  "Aliases" : null,
  "TimeZone" : {
    "UtcCurrentOffset" : -4,
    "RawOffset" : -4,
    "TimezoneId" : "America/Santiago",
    "DisplayName" : "(UTC-04:00) Santiago"
  }
}, {
  "Code" : "US0187",
  "CountryCode" : "US",
  "Name" : "Cordova",
  "LatGeodetic" : 60.54833221435547,
  "Lon" : -145.76832580566406,
  "Locode" : "",
  "Aliases" : null,
  "TimeZone" : {
    "UtcCurrentOffset" : -8,
    "RawOffset" : -9,
    "TimezoneId" : "America/Anchorage",
    "DisplayName" : "(UTC-09:00) Alaska"
  }
}, {
  "Code" : "NI0005",
  "CountryCode" : "NI",
  "Name" : "Corinto",
  "LatGeodetic" : 12.481666564941406,
  "Lon" : -87.16666412353516,
  "Locode" : "NICIO",
  "Aliases" : null,
  "TimeZone" : {
    "UtcCurrentOffset" : -6,
    "RawOffset" : -6,
    "TimezoneId" : "America/Guatemala",
    "DisplayName" : "(UTC-06:00) Central America"
  }
}, {
  "Code" : "IE0022",
  "CountryCode" : "IE",
  "Name" : "Cork",
  "LatGeodetic" : 51.899166107177734,
  "Lon" : -8.414999961853027,
  "Locode" : "IEORK",
  "Aliases" : [ "Haulbowline", "Ringaskiddy", "Rushbrooke" ],
  "TimeZone" : {
    "UtcCurrentOffset" : 1,
    "RawOffset" : 0,
    "TimezoneId" : "Europe/London",
    "DisplayName" : "(UTC+00:00) Dublin, Edinburgh, Lisbon, London"
  }
}, {
  "Code" : "CA0122",
  "CountryCode" : "CA",
  "Name" : "Corner Brook",
  "LatGeodetic" : 48.959999084472656,
  "Lon" : -57.98533248901367,
  "Locode" : "CACBK",
  "Aliases" : [ "Humbermouth" ],
  "TimeZone" : {
    "UtcCurrentOffset" : -2,
    "RawOffset" : -3,
    "TimezoneId" : "America/St_Johns",
    "DisplayName" : "(UTC-03:30) Newfoundland"
  }
}, {
  "Code" : "CL0021",
  "CountryCode" : "CL",
  "Name" : "Coronel",
  "LatGeodetic" : -37.03333282470703,
  "Lon" : -73.15499877929688,
  "Locode" : "CLCNL",
  "Aliases" : null,
  "TimeZone" : {
    "UtcCurrentOffset" : -4,
    "RawOffset" : -4,
    "TimezoneId" : "America/Santiago",
    "DisplayName" : "(UTC-04:00) Santiago"
  }
}, {
  "Code" : "US0190",
  "CountryCode" : "US",
  "Name" : "Corpus Christi",
  "LatGeodetic" : 27.81333351135254,
  "Lon" : -97.40333557128906,
  "Locode" : "USCRP",
  "Aliases" : null,
  "TimeZone" : {
    "UtcCurrentOffset" : -5,
    "RawOffset" : -6,
    "TimezoneId" : "America/Chicago",
    "DisplayName" : "(UTC-06:00) Central Time (US & Canada)"
  }
}, {
  "Code" : "ES0055",
  "CountryCode" : "ES",
  "Name" : "Coruna",
  "LatGeodetic" : 43.36000061035156,
  "Lon" : -8.376667022705078,
  "Locode" : "ESLCG",
  "Aliases" : [ "La Coruna" ],
  "TimeZone" : {
    "UtcCurrentOffset" : 2,
    "RawOffset" : 1,
    "TimezoneId" : "Europe/Paris",
    "DisplayName" : "(UTC+01:00) Brussels, Copenhagen, Madrid, Paris"
  }
},